,Regiao,Cidades,latitude,longitude,place_id,country,administrative_area_level_1,administrative_area_level_2,formatted_address
4,Norte,Arcos de Valdevez,41.8458289,-8.419221300000002,ChIJ1_xGolAJJQ0RU5yLJPgiDi4,Portugal,Viana do Castelo District,Arcos de Valdevez,"4970 Arcos de Valdevez, Portugal"
5,Norte,Caminha,41.8732082,-8.837845399999999,ChIJyTd9DHfAJQ0RtLXKx4Ks6ss,Portugal,Viana do Castelo District,Caminha,"4910 Caminha, Portugal"
6,Norte,Melgaço,42.1150676,-8.259597399999999,ChIJr1JmSJ9lJQ0RadJplYAyzZc,Portugal,Viana do Castelo District,Melgaço,"4960 Melgaço, Portugal"
7,Norte,Monção,42.0771855,-8.4819441,ChIJd-EaWft3JQ0RpVKUcLAc5-E,Portugal,Viana do Castelo District,Monção,"4950 Monção, Portugal"
8,Norte,Paredes de Coura,41.913112,-8.5614378,ChIJ-SkQ8-OhJQ0RJFOypD-YdGk,Portugal,Viana do Castelo District,Paredes de Coura,"4940 Coura, Portugal"
9,Norte,Ponte da Barca,41.8447762,-8.1994276,ChIJD0BvfSAJJQ0RgDreyZWPDhs,Portugal,Viana do Castelo District,Ponte da Barca,"Ponte da Barca, 4980-020, Portugal"
10,Norte,Ponte de Lima,41.7622565,-8.5832339,ChIJEQcPA_GlJQ0RzmZ8_rWwtzQ,Portugal,Viana do Castelo District,Ponte de Lima,"4990 Ponte de Lima, Portugal"
11,Norte,Valença,42.0269543,-8.642285,ChIJkwCBc4qaJQ0Rkiw05LDISpg,Portugal,Viana do Castelo District,Valença,"4930 Valença, Portugal"
12,Norte,Viana do Castelo,41.6918275,-8.8344101,ChIJc2ro9s63JQ0R_R3SXX4WTf4,Portugal,Viana do Castelo District,Viana do Castelo,"Viana do Castelo, Portugal"
13,Norte,Vila Nova de Cerveira,41.9383326,-8.744077299999999,ChIJVTY-eGSWJQ0RyBoIFMHMkcQ,Portugal,Viana do Castelo District,Vila Nova de Cerveira,"4920 Vila Nova de Cerveira, Portugal"
15,Norte,Amares,41.64661419999999,-8.3417006,ChIJo8JRYmECJQ0RhipMqQ--P9o,Portugal,Braga,Amares,"Amares, 4720, Portugal"
16,Norte,Barcelos,41.5569268,-8.6160674,ChIJGfCrgTNSJA0RYG-oqk0UhqU,Portugal,Braga,Barcelos,"Barcelos, Portugal"
17,Norte,Braga,41.5454486,-8.426506999999999,ChIJZ9j1bLz-JA0RGOLRYkEFXbw,Portugal,Braga,Braga,"Braga, Portugal"
18,Norte,Esposende,41.5323512,-8.7830801,ChIJJ7JQobpLJA0R0tFXlIaLB6Y,Portugal,Braga,Esposende,"4740 Esposende, Portugal"
19,Norte,Terras de Bouro,41.7167409,-8.306244399999999,ChIJ41gHaLUEJQ0R3YAUsK5xlcg,Portugal,Braga,Terras de Bouro,"4840 Terras de Bouro, Portugal"
20,Norte,Vila Verde,41.6507161,-8.433281299999999,ChIJXcH0A6YBJQ0RlmHUDtZue0w,Portugal,Braga,Vila Verde,"4730 Vila Verde, Portugal"
22,Norte,Cabeceiras de Basto,41.5116939,-7.9979753,ChIJZzrjfJLaJA0RR2cf9hA3jiU,Portugal,Braga,Cabeceiras de Basto,"4860 Cabeceiras de Basto, Portugal"
23,Norte,Fafe,41.4507439,-8.1754442,ChIJrSfp0V_oJA0R_iRjtO7TspU,Portugal,Braga,Fafe,"4820 Fafe, Portugal"
24,Norte,Guimarães,41.44253,-8.2917857,ChIJs2vwHxnwJA0RShUcmOiE4lM,Portugal,Braga,Guimarães,"Guimaraes, Portugal"
25,Norte,Mondim de Basto,41.4112348,-7.9526065,ChIJi84o9K3IJA0RMN3mozsbSdo,Portugal,Vila Real District,Mondim de Basto,"4880 Mondim de Basto, Portugal"
26,Norte,Póvoa de Lanhoso,41.5784784,-8.2689012,ChIJibIfPAfjJA0RiTcDEvKQCGE,Portugal,Braga,Póvoa de Lanhoso,"4830 Póvoa de Lanhoso, Portugal"
27,Norte,Vieira do Minho,41.6343218,-8.141619799999999,ChIJ5TejdALgJA0RzaHKibJX3oQ,Portugal,Braga,Vieira do Minho,"4850 Vieira do Minho, Portugal"
28,Norte,Vila Nova de Famalicão,41.4116818,-8.5224051,ChIJf2S5E1xYJA0RM_IDcSzNiTk,Portugal,Braga,Vila Nova de Famalicão,"4760 Vila Nova de Famalicão, Portugal"
29,Norte,Vizela,41.3764108,-8.309834799999999,ChIJjcywsADyJA0R7ciciZMZujY,Portugal,Braga,Vizela,"4815 São João de Caldas de Vizela, Portugal"
31,Norte,Arouca,40.9312766,-8.237704899999999,ChIJS0RQwMdjIw0RB3J692DS57o,Portugal,Aveiro District,Arouca,"4540 Arouca, Portugal"
32,Norte,Espinho,41.0071914,-8.641033199999999,ChIJm6gxzcd5JA0R-APg9bIvyHM,Portugal,Aveiro District,Espinho,"4500 Espinho, Portugal"
33,Norte,Gondomar,41.13955989999999,-8.5291423,ChIJDb7NRSdjJA0RMxhrr82-k-0,Portugal,Porto District,Gondomar,"4420-317 Gondomar, Portugal"
34,Norte,Maia,41.2326543,-8.622938699999999,ChIJ4zGTOfhmJA0RfmcqcLKlVKk,Portugal,Porto District,Maia,"4470 Maia, Portugal"
35,Norte,Matosinhos,41.182863,-8.688951,ChIJi0gLpZ1oJA0R0DiQ5L3rAAQ,Portugal,Porto District,Matosinhos,"Matosinhos, Portugal"
36,Norte,Oliveira de Azeméis,40.839305,-8.4770079,ChIJrd0H8mV4Iw0RQeWnGySjD9w,Portugal,Aveiro District,Oliveira de Azeméis,"3720 Oliveira de Azeméis, Portugal"
37,Norte,Paredes,41.2051674,-8.3303867,ChIJn0DJbROOJA0RYbGJDwN8S-w,Portugal,Porto District,Paredes,"4580 Paredes, Portugal"
38,Norte,Porto,41.1579438,-8.629105299999999,ChIJwVPhxKtlJA0RvBSxQFbZSKY,Portugal,Porto District,Porto District,"Porto, Portugal"
39,Norte,Póvoa de Varzim,41.3828815,-8.759989299999999,ChIJnwa6NJBFJA0R29hwXPyZ1qY,Portugal,Porto District,Póvoa de Varzim,"4490 Povoa de Varzim, Portugal"
40,Norte,Santa Maria da Feira,40.9257594,-8.5478589,ChIJWVRlid2AIw0ROqJ0gQsko44,Portugal,Aveiro District,Santa Maria da Feira,"4520 Santa Maria da Feira, Portugal"
41,Norte,Santo Tirso,41.3431376,-8.4738078,ChIJeVoMe2FfJA0RZ1lFOuyeFKc,Portugal,Porto District,Santo Tirso,"4780 Santo Tirso, Portugal"
42,Norte,São João da Madeira,40.90052379999999,-8.490671599999999,ChIJm_z2efuBIw0RSobLphvom0M,Portugal,Aveiro District,São João da Madeira,"3700 São João da Madeira, Portugal"
43,Norte,Trofa,41.3373686,-8.559698899999999,ChIJy1SrHI9eJA0RUQ7_ekDWrls,Portugal,Porto District,Trofa,"4785 Trofa, Portugal"
44,Norte,Vale de Cambra,40.8424421,-8.3960727,ChIJr7nwmxt6Iw0RDQvNET0OrbA,Portugal,Aveiro District,Vale de Cambra,"3730 Vale de Cambra, Portugal"
45,Norte,Valongo,41.1977783,-8.495222799999999,ChIJJ49ZXhFiJA0RjPcWlM0SYcg,Portugal,Porto District,Valongo,"Valongo, Portugal"
46,Norte,Vila do Conde,41.33333630000001,-8.6820636,ChIJo9z9G29DJA0RUDmQ5L3rAAQ,Portugal,Porto District,Vila do Conde,"Vila do Conde, Portugal"
47,Norte,Vila Nova de Gaia,41.1238759,-8.611785099999999,ChIJ8TZAdCdlJA0Rdd2tUs9QfWc,Portugal,Porto District,Vila Nova de Gaia,"Vila Nova de Gaia, Portugal"
49,Norte,Boticas,41.6984124,-7.6710889,ChIJjzftG1rWOg0RwBuR5L3rAAU,Portugal,Vila Real District,Boticas,"Boticas, 5460 Boticas, Portugal"
50,Norte,Chaves,41.7158962,-7.4814163,ChIJrS32IGbeOg0RjShDprh4I2c,Portugal,Vila Real District,Chaves,"Chaves, Portugal"
51,Norte,Montalegre,41.7719014,-7.828636800000001,ChIJRa1GozgsJQ0RgDyQ5L3rAAQ,Portugal,Vila Real District,Montalegre,"Montalegre, 5470, Portugal"
52,Norte,Ribeira de Pena,41.5199011,-7.793851,ChIJ5TJDL8XSJA0RG-C-9TBM0Ns,Portugal,Vila Real District,Ribeira de Pena,"4870 Ribeira de Pena, Portugal"
53,Norte,Valpaços,41.608716,-7.3109056,ChIJeRu5MHsbOw0RexOPDEyGIDE,Portugal,Vila Real,Valpaços,"5430 Valpaços, Portugal"
54,Norte,Vila Pouca de Aguiar,41.5002387,-7.6432318,ChIJLeqtLhkwOw0RQq6uH5k7M7g,Portugal,Vila Real District,Vila Pouca de Aguiar,"5450 Vila Pouca de Aguiar, Portugal"
56,Norte,Amarante,41.2732068,-8.0822829,ChIJ47J5DPC-JA0R7gV_bgHmbcM,Portugal,Porto District,Amarante,"4600 Amarante, Portugal"
57,Norte,Baião,41.1447349,-7.981084500000001,ChIJv3EQZNG6JA0RcDiQ5L3rAAQ,Portugal,Porto District,Baião,"Baião, Portugal"
58,Norte,Castelo de Paiva,41.0409444,-8.2714736,ChIJyf9Hv_ScJA0RRQNrDwDJTnQ,Portugal,Aveiro District,Castelo de Paiva,"4550 Castelo de Paiva, Portugal"
59,Norte,Celorico de Basto,41.3889737,-7.999703599999999,ChIJO8PzfIrGJA0RfO98Mne4ITo,Portugal,Braga,Celorico de Basto,"4890 Celorico de Basto, Portugal"
60,Norte,Cinfães,41.071713,-8.0898477,ChIJQ-DhLoGhJA0R4yLcY88O1Js,Portugal,Viseu District,Cinfães,"4690 Cinfães, Portugal"
61,Norte,Felgueiras,41.3664104,-8.1971968,ChIJm0BffJTrJA0RFl8_szWZTaI,Portugal,Porto District,Felgueiras,"4610 Felgueiras, Portugal"
62,Norte,Lousada,41.2778714,-8.2815432,ChIJt9c2C-2SJA0RkMLWsBJARH8,Portugal,Porto District,Lousada,"4620 Lousada, Portugal"
63,Norte,Marco de Canaveses,41.1855038,-8.149687,ChIJ7ypaz8eXJA0RbwX7y1jzJV0,Portugal,Porto District,Marco de Canaveses,"Marco de Canaveses, Portugal"
64,Norte,Paços de Ferreira,41.2782274,-8.3750991,ChIJbetsW8CMJA0RYPOQ5L3rAAU,Portugal,Porto District,Paços de Ferreira,"4590 Paços de Ferreira, Portugal"
65,Norte,Penafiel,41.2070076,-8.2831551,ChIJLTiGmemRJA0RoPaQ5L3rAAU,Portugal,Porto District,Penafiel,"4560 Penafiel, Portugal"
66,Norte,Resende,41.0676876,-7.9374948,ChIJ8aKGXfWlJA0RPTBvU-PWr2M,Portugal,Viseu District,Resende,"Resende, 4660, Portugal"
68,Norte,Alijó,41.2772797,-7.477030200000001,ChIJuRR4WotBOw0RAl9sN6KwN-8,Portugal,Vila Real,Alijó,"5070 Alijó, Portugal"
69,Norte,Armamar,41.1090606,-7.693217700000001,ChIJA2u4h7JWOw0RNszftnQ9Kzs,Portugal,Viseu,Armamar,"5110 Armamar, Portugal"
70,Norte,Carrazeda de Ansiães,41.2428631,-7.307555700000001,ChIJGeCZ0a1vOw0R2KCSQEoBfEk,Portugal,Bragança District,Carrazeda de Ansiães,"5140 Carrazeda de Ansiães, Portugal"
71,Norte,Freixo de Espada à Cinta,41.0900806,-6.8087993,ChIJaf_axnKKOw0RgcIEryXSQuM,Portugal,Bragança District,Freixo de Espada à Cinta,"5180 Freixo de Espada à Cinta, Portugal"
72,Norte,Lamego,41.0953745,-7.812380500000001,ChIJdeek6GOrJA0R-3diSpAA9OY,Portugal,Viseu District,Lamego,"5100 Lamego, Portugal"
73,Norte,Mesão Frio,41.1598648,-7.889922799999999,ChIJ15VloBmuJA0RuFGDb8ozBZU,Portugal,Vila Real District,Mesão Frio,"5040 Mesão Frio, Portugal"
74,Norte,Moimenta da Beira,40.9817183,-7.613923300000001,ChIJySfQaS2mPA0RVRA5mbnmklc,Portugal,Viseu District,Moimenta da Beira,"3620 Moimenta da Beira, Portugal"
75,Norte,Murça,41.410051,-7.4489531,ChIJr0EOtTs-Ow0Rnb4PKOVANME,Portugal,Vila Real,Murça,"5090 Murça, Portugal"
76,Norte,Penedono,40.9903208,-7.3943499,ChIJy2bs7veePA0RuGcHlMavOI8,Portugal,Viseu District,Penedono,"3630 Penedono, Portugal"
77,Norte,Peso da Régua,41.1918437,-7.730807,ChIJQ92mS0RNOw0RoDyQ5L3rAAQ,Portugal,Vila Real District,Peso da Régua,"Peso da Régua, Portugal"
78,Norte,Sabrosa,41.2689661,-7.5752443,ChIJMYq-RitEOw0RGwqMu_LBnQ8,Portugal,Vila Real,Sabrosa,"5060 Sabrosa, Portugal"
79,Norte,Santa Marta de Penaguião,41.2098807,-7.784071899999999,ChIJTdnq-S1NOw0RfgHjtvOcZV0,Portugal,Vila Real District,Santa Marta de Penaguião,"5030 Santa Marta de Penaguião, Portugal"
80,Norte,São João da Pesqueira,41.14773810000001,-7.405053300000001,ChIJA_8k7BVnOw0RSkSq4yiMBTU,Portugal,Viseu District,São João da Pesqueira,"5130 São João da Pesqueira, Portugal"
81,Norte,Sernancelhe,40.8998417,-7.4900188,ChIJu8Bj8iyjPA0REm8aH_dSL2I,Portugal,Viseu District,Sernancelhe,"3640 Sernancelhe, Portugal"
82,Norte,Tabuaço,41.1162713,-7.5674579,ChIJzQfftypaOw0RQ2k2RLu6nXc,Portugal,Viseu District,Tabuaço,"5120 Tabuaço, Portugal"
83,Norte,Tarouca,41.0174461,-7.775003600000001,ChIJ4SgMelNVIw0RJKrrCGIMuwY,Portugal,Viseu District,Tarouca,"3610 Tarouca, Portugal"
84,Norte,Torre de Moncorvo,41.1742164,-7.0534405,ChIJb3ZtAE6COw0RPHYMlE8GwMs,Portugal,Bragança,Torre de Moncorvo,"5160 Torre de Moncorvo, Portugal"
85,Norte,Vila Nova de Foz Côa,41.0822466,-7.1403598,ChIJ4XDAR6p_Ow0RdeVzTlUUieQ,Portugal,Guarda District,Vila Nova de Foz Côa,"5150 Vila Nova de Foz Côa, Portugal"
86,Norte,Vila Real,41.3011532,-7.7409832,ChIJL_SzFKlLOw0RA3aSE13pF0w,Portugal,Vila Real District,Vila Real,"5000 Vila Real, Portugal"
88,Norte,Alfândega da Fé,41.344363,-6.9601807,ChIJY08MQgiZOw0RYkYM6otCv48,Portugal,Bragança District,Alfândega da Fé,"5350 Alfândega da Fé, Portugal"
89,Norte,Bragança,41.8061131,-6.756737999999999,ChIJR8I_LP1JOg0RHBm9CtWaNtc,Portugal,Bragança District,Bragança,"5300 Bragança, Portugal"
90,Norte,Macedo de Cavaleiros,41.5370005,-6.9617993,ChIJOYF9XqalOw0RyfFJLJS7zDg,Portugal,Bragança,Macedo de Cavaleiros,"5340 Macedo de Cavaleiros, Portugal"
91,Norte,Miranda do Douro,41.4995412,-6.2712311,ChIJS0UQYmNmOQ0RCUdpzDlHbqs,Portugal,Bragança District,Miranda do Douro,"5210 Miranda do Douro, Portugal"
92,Norte,Mirandela,41.4853545,-7.180871100000001,ChIJgSGFNM0OOw0RP7WRmCCEMu4,Portugal,Bragança District,Mirandela,"5370 Mirandela, Portugal"
93,Norte,Mogadouro,41.3426456,-6.7099863,ChIJg7_is3XrOw0RR5OW4oe2DwQ,Portugal,Bragança District,Mogadouro,"5200 Mogadouro, Portugal"
94,Norte,Vila Flor,41.31888560000001,-7.1574784,ChIJq3OnZSN0Ow0RcVq_qDdp_mI,Portugal,Bragança District,Vila Flor,"Vila Flor, 5360, Portugal"
95,Norte,Vimioso,41.5844451,-6.529121099999999,ChIJJfnFQI_QOw0RJNcHN9-0ecc,Portugal,Bragança District,Vimioso,"5230 Vimioso, Portugal"
96,Norte,Vinhais,41.8307225,-7.009300499999999,ChIJ6X9VQdNQOg0Rh-3d8Fg4QH4,Portugal,Bragança,Vinhais,"5320 Vinhais, Portugal"
99,Centro,Alcobaça,39.5503343,-8.9730531,ChIJDxLPS8qlGA0Rk5T5ZnW2A3w,Portugal,Leiria District,Alcobaça,"2460 Alcobaça, Portugal"
100,Centro,Alenquer,39.0927696,-9.0571089,ChIJq5CWW1_QGA0RgDaQ5L3rAAQ,Portugal,Lisbon,Alenquer,"Alenquer, 2580, Portugal"
101,Centro,Arruda dos Vinhos,38.9829298,-9.0776401,ChIJJ8_Fc0bWGA0Rtl9iRJGMVNE,Portugal,Lisbon,Arruda dos Vinhos,"2630 Arruda dos Vinhos, Portugal"
102,Centro,Bombarral,39.2680991,-9.158511299999999,ChIJ0Sp4VB3LGA0RkNeQ5L3rAAU,Portugal,Leiria District,Bombarral,"2540 Bombarral, Portugal"
103,Centro,Cadaval,39.2433402,-9.102780500000001,ChIJqSLvTdjLGA0RgxlstooFBg0,Portugal,Lisbon,Cadaval,"2550 Cadaval, Portugal"
104,Centro,Caldas da Rainha,39.4061871,-9.1348206,ChIJ0aKCoFCyGA0RnPyOjo0ZmrM,Portugal,Leiria District,Caldas da Rainha,"2500 Caldas da Rainha, Portugal"
105,Centro,Lourinhã,39.2425234,-9.3132718,ChIJ4RpKTWo2Hw0RI5CL2x_d4vg,Portugal,Lisbon,Lourinhã,"2530 Lourinhã, Portugal"
106,Centro,Nazaré,39.6015562,-9.0677509,ChIJF9RqLyOoGA0RbxBCr3HY0gM,Portugal,Leiria District,Nazaré,"2450 Nazaré, Portugal"
107,Centro,Óbidos,39.3572399,-9.1578614,ChIJxd4e7560GA0RsztNs4piChc,Portugal,Leiria District,Óbidos Municipality,"2510 Óbidos, Portugal"
108,Centro,Peniche,39.3603291,-9.387622,ChIJRaEFmMRFHw0R82uVoJb1yiY,Portugal,Leiria District,Peniche,"2520 Peniche, Portugal"
109,Centro,Sobral de Monte Agraço,39.0188114,-9.1505771,ChIJk_WIn__UGA0RJ_JUd-yPiM0,Portugal,Lisbon,Sobral de Monte Agraço,"2590 Sobral de Monte Agraço, Portugal"
110,Centro,Torres Vedras,39.09177589999999,-9.2600341,ChIJUxs6LcItHw0RiKarfvzELMo,Portugal,Lisbon,Torres Vedras,"2560 Torres Vedras, Portugal"
112,Centro,Águeda,40.5754246,-8.446436799999999,ChIJYyaa4skLIw0RUFmQ5L3rAAU,Portugal,Aveiro District,Águeda,"3750 Agueda, Portugal"
113,Centro,Albergaria-a-Velha,40.6897102,-8.4813861,ChIJjzrBdDOeIw0R7NUmtS8KH1k,Portugal,Aveiro District,Albergaria-a-Velha,"3850 Albergaria-a-Velha, Portugal"
114,Centro,Anadia,40.46671569999999,-8.4622987,ChIJd5cbkPwGIw0RhOKTExI3OYc,Portugal,Aveiro District,Anadia,"Anadia, 3780, Portugal"
115,Centro,Aveiro,40.6405055,-8.6537539,ChIJjeey1Q6YIw0RBx88Ac3hQjA,Portugal,Aveiro District,Aveiro,"Aveiro, Portugal"
116,Centro,Estarreja,40.7528385,-8.5709856,ChIJlfEUiYacIw0RVYXsFgojzmg,Portugal,Aveiro District,Estarreja,"Estarreja, Portugal"
117,Centro,Ílhavo,40.602309,-8.672371,ChIJ2SkyGSG9Iw0RDFiyU_kXTUI,Portugal,Aveiro District,Ílhavo,"3830 Ilhavo, Portugal"
118,Centro,Murtosa,40.7370493,-8.6399173,ChIJOY_wXXOaIw0RD90wDvDJl20,Portugal,Aveiro,Murtosa,"3870 Murtosa, Portugal"
119,Centro,Oliveira do Bairro,40.5170209,-8.498208,ChIJCWgTmpenIw0R1FXxqisqhj4,Portugal,Aveiro District,Oliveira do Bairro,"3770 Oliveira do Bairro, Portugal"
120,Centro,Ovar,40.8596399,-8.6253313,ChIJb9QJhY6FIw0R9ldMxsEpU74,Portugal,Aveiro District,Ovar,"3880 Ovar, Portugal"
121,Centro,Sever do Vouga,40.7334189,-8.371767199999999,ChIJ-W7fQOFzIw0R9pog2vp-7Iw,Portugal,Aveiro District,Sever do Vouga,"3740 Sever do Vouga, Portugal"
122,Centro,Vagos,40.53119119999999,-8.6820636,ChIJxQD_C_u6Iw0RcC6Q5L3rAAQ,Portugal,Aveiro District,"Vagos, Portugal","Vagos, Portugal, 3840, Portugal"
124,Centro,Arganil,40.218499,-8.0537909,ChIJK7L1epvcIg0RD9GbmeoqKUg,Portugal,Coimbra District,Arganil,"3300 Arganil, Portugal"
125,Centro,Cantanhede,40.347032,-8.5934416,ChIJpe-2ivysIw0RzxtD_MRsCXQ,Portugal,Coimbra District,Cantanhede,"3060 Cantanhede, Portugal"
126,Centro,Coimbra,40.2033145,-8.4102573,ChIJbdGsShT5Ig0RuaZCe0dkRWM,Portugal,Coimbra District,Coimbra,"Coimbra, Portugal"
127,Centro,Condeixa-a-Nova,40.1141535,-8.498116399999999,ChIJNfSvmYlYIg0RHvcLdyfOl7o,Portugal,Coimbra District,Condeixa-a-Nova,"3150 Condeixa-a-Nova, Portugal"
128,Centro,Figueira da Foz,40.1521398,-8.857583,ChIJQZzvPeA3Ig0R3vSp3Zgijoc,Portugal,Coimbra District,Figueira da Foz,"Figueira da Foz, Portugal"
129,Centro,Góis,40.1572681,-8.1106277,ChIJO9qbDsPCIg0RuAVP_7me6Ik,Portugal,Coimbra,Góis,"3330 Góis, Portugal"
130,Centro,Lousã,40.1125621,-8.2468738,ChIJSRZnapLuIg0RC1_Pb1ei8Pg,Portugal,Coimbra District,Lousã,"3200 Lousã, Portugal"
131,Centro,Mealhada,40.3807921,-8.449581400000001,ChIJR-YCNuIAIw0RTR84g-Gs3OI,Portugal,Aveiro District,Mealhada,"3050 Mealhada Municipality, Portugal"
132,Centro,Mira,40.4287977,-8.738126099999999,ChIJ48CixzGxIw0RZxIi4ZpGt9g,Portugal,Coimbra District,Mira,"3070 Mira, Portugal"
133,Centro,Miranda do Corvo,40.09019809999999,-8.329640099999999,ChIJUYuUnQPyIg0RdUcRSEcvtC0,Portugal,Coimbra District,Miranda do Corvo,"3220 Miranda do Corvo, Portugal"
134,Centro,Montemor-o-Velho,40.1748245,-8.6826636,ChIJJXc86jJOIg0RId6vdwipsas,Portugal,Coimbra District,Montemor-o-Velho,"3140 Montemor-o-Velho, Portugal"
135,Centro,Mortágua,40.3971448,-8.2309134,ChIJh-w3SSMcIw0R3KA8OV7XRb8,Portugal,Viseu District,Mortágua,"3450 Mortágua, Portugal"
136,Centro,Oliveira do Hospital,40.3608614,-7.862203200000001,ChIJibZBbe7VIg0RuuqGFr9jhcA,Portugal,Coimbra District,Oliveira do Hospital,"3400 Oliveira do Hospital, Portugal"
137,Centro,Pampilhosa da Serra,40.0463704,-7.949715499999999,ChIJAQ_qlwzIIg0RuuzdAXACZjc,Portugal,Coimbra District,Pampilhosa da Serra,"3320 Pampilhosa da Serra, Portugal"
138,Centro,Penacova,40.2704883,-8.28054,ChIJr7nFUgzjIg0Rcjhnv2dwK0E,Portugal,Coimbra District,Penacova,"3360 Penacova, Portugal"
139,Centro,Penela,40.0282938,-8.390568499999999,ChIJtRCLwmfzIg0RXhR8JneJUj8,Portugal,Coimbra,Penela,"3230 Penela, Portugal"
140,Centro,Soure,40.0610524,-8.6239203,ChIJ22z5DmFcIg0RNuod_RNaZgA,Portugal,Coimbra District,Soure,"3130 Soure, Portugal"
141,Centro,Tábua,40.3617145,-8.028221799999999,ChIJ4_PIEmcnIw0RUWp6k_NtZro,Portugal,Coimbra,Tábua,"3420 Tábua, Portugal"
142,Centro,Vila Nova de Poiares,40.2107667,-8.25907,ChIJI6K0NQPlIg0Ri5NIyy0_s74,Portugal,Coimbra District,Vila Nova de Poiares,"3350 Vila Nova de Poiares, Portugal"
144,Centro,Alvaiázere,39.8237427,-8.3807264,ChIJHVWIggmGIg0RARM0PuQd5jo,Portugal,Leiria,Alvaiázere,"3250 Alvaiázere, Portugal"
145,Centro,Ansião,39.9107177,-8.438509999999999,ChIJ9-O7yX-JIg0RXbcyD_14pJQ,Portugal,Leiria District,Ansião,"3240 Ansião, Portugal"
146,Centro,Batalha,39.6583864,-8.8241787,ChIJSwEqzE11Ig0R7Ru_-mMeckA,Portugal,Leiria District,Batalha,"2440 Batalha, Portugal"
147,Centro,Castanheira de Pêra,40.0058478,-8.2125382,ChIJhxtNhLmUIg0R2yQXb_ZKUBY,Portugal,Leiria District,Castanheira de Pera,"3280 Castanheira de Pêra, Portugal"
148,Centro,Figueiró dos Vinhos,39.8993771,-8.2801574,ChIJESISmbKRIg0RyN_VUMC7Twk,Portugal,Leiria District,Figueiró dos Vinhos,"3260 Figueiró Dos Vinhos, Portugal"
149,Centro,Leiria,39.74953310000001,-8.807682999999999,ChIJubLJNBVzIg0RbDzUOSeDr00,Portugal,Leiria District,Leiria,"Leiria, Portugal"
150,Centro,Marinha Grande,39.7503802,-8.931805899999999,ChIJV9Vi11oOIg0R4poDG-2sLz4,Portugal,Leiria District,Marinha Grande,"2430 Marinha Grande, Portugal"
151,Centro,Pedrógão Grande,39.91765609999999,-8.145618400000002,ChIJA0nh5iKWIg0RVvcBJWpNCE8,Portugal,Leiria,Pedrógão Grande,"3270 Pedrógão Grande, Portugal"
152,Centro,Pombal,39.9162755,-8.628103099999999,ChIJ0wvWadRlIg0RLgu6gtLE914,Portugal,Leiria District,Pombal,"3100 Pombal, Portugal"
153,Centro,Porto de Mós,39.5990855,-8.8307626,ChIJFXQaxSygGA0RgNyQ5L3rAAU,Portugal,Leiria District,Porto de Mós,"2480 Porto de Mós, Portugal"
155,Centro,Aguiar da Beira,40.816453,-7.5454104,ChIJrexZ27q7PA0RaYvLYzsFTFU,Portugal,Guarda District,Aguiar da Beira,"3570 Aguiar da Beira, Portugal"
156,Centro,Carregal do Sal,40.4347784,-7.9980002,ChIJQwgowQgmIw0RTg_zfFMt4oY,Portugal,Viseu District,Carregal do Sal,"3430 Carregal do Sal, Portugal"
157,Centro,Castro Daire,40.8997924,-7.933502,ChIJtTbNzyZRIw0R7o9T22m8aro,Portugal,Viseu District,Castro Daire,"3600 Castro Daire, Portugal"
158,Centro,Mangualde,40.604979,-7.762452099999999,ChIJ5zOMGKLMPA0R5D-dqKKLCuI,Portugal,Viseu District,Mangualde,"3530 Mangualde, Portugal"
159,Centro,Nelas,40.537787,-7.8498679,ChIJr1N90BsyIw0RqoLEqPM-WUQ,Portugal,Viseu District,Nelas,"3520 Nelas, Portugal"
160,Centro,Oliveira de Frades,40.7322554,-8.1737805,ChIJQ5eXLolrIw0RsE9NHm8equk,Portugal,Viseu District,Oliveira de Frades,"3680 Oliveira de Frades, Portugal"
161,Centro,Penalva do Castelo,40.6767248,-7.6960437,ChIJv0I-36zJPA0RMk7tVet6ODI,Portugal,Viseu,Penalva do Castelo,"3550 Penalva do Castelo, Portugal"
162,Centro,Santa Comba Dão,40.3966275,-8.1314525,ChIJAy-pV9YhIw0RIQf6C9EazW8,Portugal,Viseu District,Santa Comba Dão,"3440 Santa Comba Dão, Portugal"
163,Centro,São Pedro do Sul,40.7597932,-8.0640758,ChIJaZaAyVhBIw0RphLT3AGIsfE,Portugal,Viseu District,São Pedro do Sul,"3660 São Pedro do Sul, Portugal"
164,Centro,Sátão,40.7423572,-7.732120099999999,ChIJKVNcgvq0PA0RMnCE6S60a_M,Portugal,Viseu District,Sátão,"3560 Sátão, Portugal"
165,Centro,Tondela,40.5170645,-8.0802569,ChIJjQFHMEwjIw0R7nuN2OlYxm0,Portugal,Viseu,Tondela,"3460 Tondela, Portugal"
166,Centro,Vila Nova de Paiva,40.8508324,-7.7309812,ChIJ92JB-mSyPA0RzBntnfdflwo,Portugal,Viseu District,Vila Nova de Paiva,"3650 Vila Nova de Paiva, Portugal"
167,Centro,Viseu,40.6565861,-7.9124712,ChIJzVzD6z42Iw0RmkTnIYjAv_Y,Portugal,Viseu District,Viseu,"Viseu, Portugal"
168,Centro,Vouzela,40.7229086,-8.1122167,ChIJfWCIebdBIw0RtOR-hS9CMuk,Portugal,Viseu District,Vouzela,"3670 Vouzela, Portugal"
170,Centro,Castelo Branco,39.8197117,-7.4964662,ChIJ23-QlShcPQ0RQB67VSpqcBw,Portugal,Castelo Branco District,Castelo Branco,"6000 Castelo Branco, Portugal"
171,Centro,Idanha-a-Nova,39.924752,-7.2415895,ChIJ9Uv6rXNwPQ0RfpybjroInDY,Portugal,Castelo Branco District,Idanha-a-Nova,"6060 Idanha-A-Nova, Portugal"
172,Centro,Oleiros,39.9201996,-7.9138535,ChIJuw1V0g6xIg0R43gkYawAq_Q,Portugal,Castelo Branco,Oleiros,"6160 Oleiros, Portugal"
173,Centro,Penamacor,40.169313,-7.171492499999999,ChIJT6ry9lUJPQ0RF7dZ40KfIsU,Portugal,Castelo Branco District,Penamacor,"6090 Penamacor, Portugal"
174,Centro,Proença-a-Nova,39.7494186,-7.9233898,ChIJ7_JGOlioIg0R3U5MT_AqYgA,Portugal,Castelo Branco,Proença-a-Nova,"6150 Proença-a-Nova, Portugal"
175,Centro,Vila Velha de Ródão,39.6545102,-7.6712121,ChIJAT5l9mv8Fw0RnjBHWxsOBn0,Portugal,Castelo Branco District,Vila Velha de Ródão,"6030 Vila Velha de Ródão, Portugal"
177,Centro,Abrantes,39.4621054,-8.1986484,ChIJ-7pMOrFtGA0RUvg6b6Flgk4,Portugal,Santarém District,Abrantes,"Abrantes, Portugal"
178,Centro,Alcanena,39.4595628,-8.666868899999999,ChIJY74vzyiQGA0RLzBWElwEto4,Portugal,Santarém District,Alcanena,"2380 Alcanena, Portugal"
179,Centro,Constância,39.4780719,-8.337225199999999,ChIJ1xK_5XNlGA0RxvPAcGmGpNs,Portugal,Santarém District,Constância,"2250 Constância, Portugal"
180,Centro,Entroncamento,39.4729822,-8.478759199999999,ChIJrXoh2H1iGA0R5BNm0z_FjGk,Portugal,Santarém District,Entroncamento,"2330 Entroncamento, Portugal"
181,Centro,Ferreira do Zêzere,39.6932144,-8.2905257,ChIJJyrInVudIg0Rw-lzar0QooE,Portugal,Santarém District,Ferreira do Zêzere,"2240 Ferreira do Zêzere, Portugal"
182,Centro,Mação,39.60433140000001,-7.981084500000001,ChIJZfEogfUFGA0RMDqQ5L3rAAQ,Portugal,Santarém District,Mação,"Mação, 6120, Portugal"
183,Centro,Ourém,39.6567985,-8.5796087,ChIJk1PsECSCGA0RUSQmFjtarzk,Portugal,Santarém District,Ourém,"2490 Ourém, Portugal"
184,Centro,Sardoal,39.5375181,-8.1612773,ChIJ0cfRY71yGA0RlacPN0VtCGY,Portugal,Santarém District,Sardoal,"2230 Sardoal, Portugal"
185,Centro,Sertã,39.801594,-8.0957844,ChIJ6x6eT8SjIg0RFjdFGgWn7cM,Portugal,Castelo Branco,Sertã,"6100 Sertã, Portugal"
186,Centro,Tomar,39.6053819,-8.4043125,ChIJK8leGat-GA0R6uUjP8gMizY,Portugal,Santarém District,Tomar,"2300 Tomar, Portugal"
187,Centro,Torres Novas,39.478072,-8.5404429,ChIJkSPra-2IGA0RiOboTNMH6GY,Portugal,Santarém District,Torres Novas,"2350 Torres Novas, Portugal"
188,Centro,Vila de Rei,39.6758453,-8.1457625,ChIJcSrdqEl1GA0R3RXdF9eP9Gk,Portugal,Castelo Branco,Vila de Rei,"6110 Vila de Rei, Portugal"
189,Centro,Vila Nova da Barquinha,39.45923880000001,-8.4313741,ChIJOe38zadjGA0RbwLMAP26cIU,Portugal,Santarém,Vila Nova da Barquinha,"2260 Vila Nova da Barquinha, Portugal"
191,Centro,Almeida,40.7254048,-6.905594199999999,ChIJ135TLcFCPA0RMbPPb09bDBo,Portugal,Guarda District,Almeida,"6350 Almeida, Portugal"
192,Centro,Belmonte,40.351063,-7.3408535,ChIJs83gXCMcPQ0RfFX4rCNPlCY,Portugal,Castelo Branco District,Belmonte,"Belmonte, 6250 Belmonte, Portugal"
193,Centro,Celorico da Beira,40.6335005,-7.3927217,ChIJUVEnAp3pPA0RTM5GDYVB-Uk,Portugal,Guarda District,Celorico da Beira,"6360 Celorico da Beira, Portugal"
194,Centro,Covilhã,40.2805633,-7.504327199999999,ChIJOXcFtrsjPQ0Ru5zEx4lIWKs,Portugal,Castelo Branco District,Covilhã,"6200 Covilhã, Portugal"
195,Centro,Figueira de Castelo Rodrigo,40.8946241,-6.963561299999999,ChIJQaI8d9lkPA0RFuc2BzPPfAQ,Portugal,Guarda District,Figueira de Castelo Rodrigo,"6440 Figueira de Castelo Rodrigo, Portugal"
196,Centro,Fornos de Algodres,40.6201957,-7.539550699999999,ChIJt-XRiEbEPA0RvedH4o4afjI,Portugal,Guarda District,Fornos de Algodres,"6370 Fornos de Algodres, Portugal"
197,Centro,Fundão,40.1137263,-7.394882000000001,ChIJYSdE4Tc5PQ0RMDGQ5L3rAAQ,Portugal,Castelo Branco District,Fundão,"Fundão, Portugal"
198,Centro,Gouveia,40.4923318,-7.5936526,ChIJ2cqOn27aPA0RV_1DC0eS1Eo,Portugal,Guarda District,Gouveia,"6290 Gouveia, Portugal"
199,Centro,Guarda,40.5308408,-7.2221421,ChIJU8b2j8T6PA0RADWQ5L3rAAQ,Portugal,Guarda District,Guarda,"Guarda, 6300, Portugal"
200,Centro,Manteigas,40.4022206,-7.538339300000001,ChIJm1mBj83YPA0Rajntt_psPZ4,Portugal,Guarda District,Manteigas,"6260 Manteigas, Portugal"
201,Centro,Mêda,40.965806,-7.2612127,ChIJZ5ilf66EPA0RySfYH9vljCQ,Portugal,Guarda District,Mêda,"6430 Mêda, Portugal"
202,Centro,Pinhel,40.7732736,-7.0685935,ChIJM6vZbUhgPA0RwD_03ouIPb4,Portugal,Distrito da Guarda,Pinhel,"6400 Pinhel, Portugal"
203,Centro,Sabugal,40.3516608,-7.089524099999999,ChIJT188yYCpPQ0R0M-Q5L3rAAU,Portugal,Distrito da Guarda,Sabugal,"6320 Sabugal, Portugal"
204,Centro,Seia,40.4148619,-7.707845000000001,ChIJaxhdbYjWPA0RoAjx9I6PihU,Portugal,Guarda District,Seia Municipality,"6270 Seia, Portugal"
205,Centro,Trancoso,40.7787604,-7.3491442,ChIJ_V9t8IuTPA0REdqgpe56zA0,Portugal,Guarda District,Trancoso,"6420 Trancoso, Portugal"
208,Área Metropolitana de Lisboa,Alcochete,38.7560205,-8.9603438,ChIJlTouDrk7GQ0Rflw-RNdd8Oc,Portugal,Setubal,Alcochete,"Alcochete, Portugal"
209,Área Metropolitana de Lisboa,Almada,38.6765238,-9.165104699999999,ChIJNRH_CRw1GQ0RetYqZOvcpvw,Portugal,Setubal,Almada,"Almada, Portugal"
210,Área Metropolitana de Lisboa,Amadora,38.7577603,-9.224547399999999,ChIJCdTnmgjNHg0Rvt33fIdAeq8,Portugal,Lisbon,Amadora,"Amadora, Portugal"
211,Área Metropolitana de Lisboa,Barreiro,38.6608149,-9.0790724,ChIJNVChMEE2GQ0R97WUXVzARvY,Portugal,Setubal,Barreiro,"Barreiro, Portugal"
212,Área Metropolitana de Lisboa,Cascais,38.6960614,-9.430364599999999,ChIJl5q3eXPEHg0RwrsHGH47DYc,Portugal,Lisbon,Cascais,"2750 Cascais, Portugal"
213,Área Metropolitana de Lisboa,Lisboa,38.7222524,-9.1393366,ChIJO_PkYRozGQ0R0DaQ5L3rAAQ,Portugal,Lisbon,Lisbon,"Lisbon, Portugal"
214,Área Metropolitana de Lisboa,Loures,38.8297603,-9.166369699999999,ChIJGcoPNC7THg0RzWHSw0rasJg,Portugal,Lisbon,Loures,"Loures, Portugal"
215,Área Metropolitana de Lisboa,Mafra,38.9443106,-9.3320856,ChIJ5aAHEzQoHw0RQOCQ5L3rAAU,Portugal,Lisbon,Mafra,"2640 Mafra, Portugal"
216,Área Metropolitana de Lisboa,Moita,38.653115,-8.993017199999999,ChIJ-cQZqIFHGQ0RQAiR5L3rAAU,Portugal,Setubal,Moita,"2860 Moita, Portugal"
217,Área Metropolitana de Lisboa,Montijo,38.7065326,-8.9765351,ChIJ1y3AOus5GQ0RBuQb0aeUzEI,Portugal,Setubal,Montijo,"Montijo, Portugal"
218,Área Metropolitana de Lisboa,Odivelas,38.7928952,-9.183161499999999,ChIJG8CGuqkyGQ0Rk6oQ9_w5PJ4,Portugal,Lisbon,Odivelas,"Odivelas, Portugal"
219,Área Metropolitana de Lisboa,Oeiras,38.69686069999999,-9.314601399999999,ChIJEYNl2y3JHg0R9zyZw3xCJ6A,Portugal,Lisbon,Oeiras,"2780 Oeiras, Portugal"
220,Área Metropolitana de Lisboa,Palmela,38.569441,-8.9016937,ChIJOyHNw5tBGQ0Rjoj5NCaEmEA,Portugal,Setubal,Palmela,"Palmela, Portugal"
221,Área Metropolitana de Lisboa,Seixal,38.6410676,-9.0975,ChIJj6MCcfNJGQ0RMWYtPME8rQw,Portugal,Setubal,Seixal,"2840 Seixal, Portugal"
222,Área Metropolitana de Lisboa,Sesimbra,38.44421699999999,-9.1014903,ChIJja9tSotRGQ0RiwZekB3GbdE,Portugal,Setubal,Sesimbra,"2970 Sesimbra, Portugal"
223,Área Metropolitana de Lisboa,Setúbal,38.5260437,-8.8909328,ChIJNXQCq_5CGQ0RVKq1m3Y_8p8,Portugal,Setubal,Setúbal,"Setúbal, Portugal"
224,Área Metropolitana de Lisboa,Sintra,38.8233416,-9.322921299999999,ChIJIzPS5ZvQHg0RIDeQ5L3rAAQ,Portugal,Lisbon,Sintra,"Sintra, Portugal"
225,Área Metropolitana de Lisboa,Vila Franca de Xira,38.9549979,-8.9888982,ChIJzY7T3O0nGQ0RmHTGQAKoiLI,Portugal,Lisbon,Vila Franca de Xira,"2600 Vila Franca de Xira, Portugal"
228,Alentejo,Alcácer do Sal,38.3706145,-8.5061998,ChIJqSKnhQh_GQ0RCnMpm2VUWVA,Portugal,Setubal,Alcácer do Sal,"7580 Alcácer do Sal, Portugal"
229,Alentejo,Grândola,38.1770597,-8.5669509,ChIJ7a3mGwHSGw0RZ3mbOGVyFZg,Portugal,Setubal,Grândola,"7570 Grândola, Portugal"
230,Alentejo,Odemira,37.6098303,-8.6270628,ChIJX3DcwBUGGw0R-rQ_kGtEg4U,Portugal,Beja District,Odemira,"7630-174 Odemira, Portugal"
231,Alentejo,Santiago do Cacém,38.0162314,-8.6956768,ChIJ4fanTRXHGw0RV266cmvlEaU,Portugal,Setúbal,Santiago do Cacém,"7540 Santiago do Cacém, Portugal"
232,Alentejo,Sines,37.9571555,-8.860890699999999,ChIJYfjgEgO_Gw0RHuATLf4j_WU,Portugal,Setubal,Sines,"Sines, Portugal"
234,Alentejo,Aljustrel,37.8760582,-8.1649833,ChIJ0yWVecVCGg0RG2Pnv6T_SfM,Portugal,Beja District,Aljustrel,"7600 Aljustrel, Portugal"
235,Alentejo,Almodôvar,37.4891809,-8.090174,ChIJ3cxwQKSTGg0RoC6Q5L3rAAQ,Portugal,Beja District,Almodôvar,"Almodôvar, 7700, Portugal"
236,Alentejo,Alvito,38.2558735,-7.991930099999999,ChIJgw0iUv0aGg0RPUWalX-gb-E,Portugal,Beja,Alvito,"7920 Alvito, Portugal"
237,Alentejo,Barrancos,38.1328809,-6.977312599999999,ChIJzxM3FUMiEQ0RKQ-ERyAtwoI,Portugal,Beja District,Barrancos,"7230 Barrancos, Portugal"
238,Alentejo,Beja,38.0153039,-7.8627308,ChIJh83fpXFzGg0Rk1HM5nDqWmo,Portugal,Beja District,Beja,"7800 Beja, Portugal"
239,Alentejo,Castro Verde,37.6991315,-8.085826299999999,ChIJMSZ-sdBhGg0RhC1KnWezgi4,Portugal,Beja District,Castro Verde,"7780 Castro Verde, Portugal"
240,Alentejo,Cuba,38.156574,-7.8939317,ChIJqTDeXMQOGg0Rvhaa77RAmw4,Portugal,Beja District,Cuba,"Cuba, 7940, Portugal"
241,Alentejo,Ferreira do Alentejo,38.0593873,-8.114071299999999,ChIJWePvDfE_Gg0RRBzPFH2NHsQ,Portugal,Beja District,Ferreira do Alentejo,"7900 Ferreira do Alentejo, Portugal"
242,Alentejo,Mértola,37.6415148,-7.6606665,ChIJq8xkRrt9EA0RmKY7gnJpwCQ,Portugal,Beja District,Mértola,"7750 Mértola, Portugal"
243,Alentejo,Moura,38.1426988,-7.4512581,ChIJCYqlfobAEA0RpIfEV3Xm3rs,Portugal,Beja District,Moura,"7860 Moura, Portugal"
244,Alentejo,Ourique,37.6521402,-8.224390399999999,ChIJiwXCl3j2Gg0Rds12p2UEtbo,Portugal,Beja District,Ourique,"7670 Ourique, Portugal"
245,Alentejo,Serpa,37.9469642,-7.602181900000001,ChIJR_VTc2KQEA0REPxXdwNQTKw,Portugal,Beja District,Serpa,"7830 Serpa, Portugal"
246,Alentejo,Vidigueira,38.2118842,-7.8005203,ChIJhzGAgREIGg0Rq6kyjRNDLmE,Portugal,Beja District,Vidigueira,"7960 Vidigueira, Portugal"
248,Alentejo,Almeirim,39.2075098,-8.6270969,ChIJ2wYm0kHwGA0Rm6QlouP8QhU,Portugal,Santarém District,Almeirim,"2080 Almeirim, Portugal"
249,Alentejo,Alpiarça,39.2591889,-8.5820055,ChIJnXp56eTzGA0RfXMk0fIZNqY,Portugal,Santarém District,Alpiarça,"2090 Alpiarça, Portugal"
250,Alentejo,Azambuja,39.0704397,-8.8730393,ChIJ178RVdfdGA0R-8CuBy7-IdI,Portugal,Lisbon,Azambuja,"2050 Azambuja, Portugal"
251,Alentejo,Benavente,38.980974,-8.809251399999999,ChIJH6Sd7lMeGQ0RFgAbpKNgBwo,Portugal,Santarém District,Benavente,"Benavente, Portugal"
252,Alentejo,Cartaxo,39.16181660000001,-8.7888254,ChIJsW_OUYboGA0RfJ4VNJu6W4g,Portugal,Santarém,Cartaxo,"2070 Cartaxo, Portugal"
253,Alentejo,Chamusca,39.3564086,-8.4786825,ChIJAYAsbP1fGA0RiuZTNdAUcWw,Portugal,Santarém,Chamusca,"2140 Chamusca, Portugal"
254,Alentejo,Coruche,38.9596619,-8.52473,ChIJLUrgjLsAGQ0RcVP9rctYbdk,Portugal,Santarém District,Coruche,"2100 Coruche, Portugal"
255,Alentejo,Golegã,39.4047966,-8.4880572,ChIJY_vIkeZhGA0RsX1qqLFWa8Y,Portugal,Santarém District,Golegã,"2150 Golegã, Portugal"
256,Alentejo,Rio Maior,39.3393698,-8.935573699999999,ChIJZSOw6MW4GA0RQAKR5L3rAAU,Portugal,Santarém District,Rio Maior,"Rio Maior, 2040 Rio Maior, Portugal"
257,Alentejo,Salvaterra de Magos,39.0272019,-8.794182,ChIJi0tjpgvhGA0RAxrOHTSWbYs,Portugal,Santarém District,Salvaterra de Magos,"Salvaterra de Magos, Portugal"
258,Alentejo,Santarém,39.2366618,-8.686011900000002,ChIJm9eOSHLuGA0Rkp3ZqNatBvQ,Portugal,Santarém District,Santarém,"Santarem, Portugal"
260,Alentejo,Alter do Chão,39.201007,-7.660334,ChIJFScF3KuFFw0RQVSJ86fQhgI,Portugal,Portalegre,Alter do Chão,"7440 Alter do Chão, Portugal"
261,Alentejo,Arronches,39.1218363,-7.2845731,ChIJvUzomcenFw0RV0AMw6tkVIw,Portugal,Portalegre District,Arronches,"7340 Arronches, Portugal"
262,Alentejo,Avis,39.07417119999999,-7.8939317,ChIJAX8w9RotGA0RkDeQ5L3rAAQ,Portugal,Portalegre District,Avis,"Avis, 7480, Portugal"
263,Alentejo,Campo Maior,39.0441326,-7.0713572,ChIJJah2dMP9Fg0RpNmhiEHDYws,Portugal,Portalegre District,Campo Maior,"Campo Maior, 7370, Portugal"
264,Alentejo,Castelo de Vide,39.4146181,-7.454066399999999,ChIJA5bHIk2VFw0RNwbmAyh8nv8,Portugal,Portalegre,Castelo de Vide,"7320 Castelo de Vide, Portugal"
265,Alentejo,Crato,39.28767440000001,-7.6456553,ChIJ5UZjKVuOFw0RDMJWzMHRHFg,Portugal,Portalegre District,Crato,"7430 Crato, Portugal"
266,Alentejo,Elvas,38.8802788,-7.1636637,ChIJ857MAg4dFw0Ryi_z1DAuCr0,Portugal,Portalegre District,Elvas,"7350 Elvas, Portugal"
267,Alentejo,Fronteira,39.05599730000001,-7.647754000000001,ChIJI20GCmV4Fw0RxAAD2AhhslM,Portugal,Portalegre District,Fronteira,"7460 Fronteira, Portugal"
268,Alentejo,Gavião,39.46528,-7.935946899999999,ChIJ53naffEZGA0RXZ9MzI2Nups,Portugal,Portalegre District,Gavião,"6040 Gavião, Portugal"
269,Alentejo,Marvão,39.3939447,-7.376536299999999,ChIJT4wkDxW_Fw0R1kDG6Lnwmr4,Portugal,Portalegre District,Marvão,"7330 Marvão, Portugal"
270,Alentejo,Monforte,39.0528283,-7.4377345,ChIJ8y2KutIKFw0RqOL7Y-2LBD8,Portugal,Portalegre,Monforte,"7450 Monforte, Portugal"
271,Alentejo,Nisa,39.5179524,-7.648376700000001,ChIJwyzkX6_xFw0RFsuiAvPjOAg,Portugal,Portalegre District,Nisa,"6050 Nisa, Portugal"
272,Alentejo,Ponte de Sor,39.2524027,-8.0093497,ChIJc89Gmk47GA0RWR5qLk6WgV0,Portugal,Portalegre District,Ponte de Sor,"7400 Ponte de Sor, Portugal"
273,Alentejo,Portalegre,39.2967086,-7.4284755,ChIJ3yw5BoK9Fw0RQFO9yvJNwb8,Portugal,Portalegre District,Portalegre,"7300 Portalegre, Portugal"
274,Alentejo,Sousel,38.9535932,-7.6764218,ChIJzY3yF-t7Fw0RSru5g8zyO8Y,Portugal,Portalegre District,Sousel,"7470 Sousel, Portugal"
276,Alentejo,Alandroal,38.7021331,-7.4036488,ChIJ0YLcwRo_Fw0RIvDvc7BGgEM,Portugal,Évora District,Alandroal,"7250 Alandroal, Portugal"
277,Alentejo,Arraiolos,38.7232208,-7.9867614,ChIJd8c89JnCGQ0RqmMmhp9yq08,Portugal,Évora District,Arraiolos,"7040 Arraiolos, Portugal"
278,Alentejo,Borba,38.8068177,-7.458405000000001,ChIJ6Qk31TVrFw0RidgXfhAjBZ8,Portugal,Évora District,Borba,"7150 Borba, Portugal"
279,Alentejo,Estremoz,38.8425123,-7.588837799999999,ChIJ21mj6kBvFw0R_RDEecWRv_U,Portugal,Évora District,Estremoz,"7100 Estremoz, Portugal"
280,Alentejo,Évora,38.571431,-7.913501999999999,ChIJnRODON_kGQ0RbO-9wzGKraY,Portugal,Évora District,Évora,"Evora, Portugal"
281,Alentejo,Montemor-o-Novo,38.64814,-8.211679799999999,ChIJnx4fHiyUGQ0R2An_EQt2Umc,Portugal,Évora District,Montemor-o-Novo,"7050 Montemor-o-Novo, Portugal"
282,Alentejo,Mora,38.9447445,-8.1653387,ChIJV9R153K2GQ0RJOI2kb5v7H8,Portugal,Évora District,Mora,"7490 Mora, Portugal"
283,Alentejo,Mourão,38.3637216,-7.286867999999999,ChIJtVnHXWLMEA0R30A9MEGLHrc,Portugal,Évora District,Mourão,"Mourão, 7240, Portugal"
284,Alentejo,Portel,38.3088689,-7.7047438,ChIJM8kXCVKpEA0Rjn4tBqnGDN8,Portugal,Distrito de Évora,Portel,"7220 Portel, Portugal"
285,Alentejo,Redondo,38.63714239999999,-7.589737200000001,ChIJ1ZOXfRREFw0RSH_Gs5BnUJc,Portugal,Évora District,Redondo,"Redondo, Portugal"
286,Alentejo,Reguengos de Monsaraz,38.42526549999999,-7.5344352,ChIJHRv_nLtMFw0RRnNI9G93zTA,Portugal,Évora District,Reguengos de Monsaraz,"7200 Reguengos de Monsaraz, Portugal"
287,Alentejo,Vendas Novas,38.6768924,-8.4633558,ChIJe_iOlvifGQ0ReyybnR5JII4,Portugal,Évora District,Vendas Novas,"7080 Vendas Novas, Portugal"
288,Alentejo,Viana do Alentejo,38.3341493,-8.0038406,ChIJ5eStrQEdGg0ReJzgnpAtxqM,Portugal,Évora District,Viana do Alentejo,"7090 Viana do Alentejo, Portugal"
289,Alentejo,Vila Viçosa,38.7754165,-7.416119999999999,ChIJOTaEmnIVFw0R7Ihw-npcbnM,Portugal,Distrito de Évora,Vila Viçosa,"7160 Vila Viçosa, Portugal"
292,Algarve,Albufeira,37.0890719,-8.2478796,ChIJH8TdOK7OGg0RRRBEYqXnIu0,Portugal,Faro District,Albufeira,"8200 Albufeira, Portugal"
293,Algarve,Alcoutim,37.4689817,-7.4735957,ChIJowm92zZqEA0RRYMQEvvWKmI,Portugal,Faro District,Alcoutim,"8970 Alcoutim, Portugal"
294,Algarve,Aljezur,37.31657,-8.7992645,ChIJw4QJoFMVGw0Rxg_DN39zeBA,Portugal,Faro District,Aljezur,"8670 Aljezur, Portugal"
295,Algarve,Castro Marim,37.2179422,-7.4423339,ChIJ_2ZrNQwYEA0RA0BkbDz2sBA,Portugal,Faro District,Castro Marim,"8950 Castro Marim, Portugal"
296,Algarve,Faro,37.0164626,-7.9351983,ChIJp_qQIudSBQ0RWv9KSdTCc40,Portugal,Faro District,Faro,"Faro, Portugal"
297,Algarve,Lagoa,37.1346084,-8.4513272,ChIJGcrqJ7DXGg0R8DOQ5L3rAAQ,Portugal,Faro District,Lagoa,"Lagoa, 8400, Portugal"
298,Algarve,Lagos,37.1027881,-8.6730275,ChIJjU0jUEkwGw0RV_waR6OqEFQ,Portugal,Faro District,Lagos,"8600 Lagos, Portugal"
299,Algarve,Loulé,37.1379187,-8.020216,ChIJkTRI3SmxGg0RY14FaR4uG6c,Portugal,Faro District,Loulé,"8100 Loulé, Portugal"
300,Algarve,Monchique,37.3179879,-8.5561706,ChIJQVpSze8hGw0RZgOBxAGMa2g,Portugal,Faro,Monchique,"8550 Monchique, Portugal"
301,Algarve,Olhão,37.02731929999999,-7.839969000000001,ChIJ-zTptzKrGg0RkokFGQYp9BQ,Portugal,Faro District,Olhão,"Olhão, Portugal"
302,Algarve,Portimão,37.13617,-8.5376926,ChIJYSkkqewoGw0R4RSAcSPJ_JM,Portugal,Faro District,Portimão,"8500 Portimão, Portugal"
303,Algarve,São Brás de Alportel,37.152576,-7.889052299999999,ChIJ7VmYUNuuGg0RAncYTvOHbW4,Portugal,Faro District,São Brás de Alportel,"8150 São Brás de Alportel, Portugal"
304,Algarve,Silves,37.1873255,-8.439477499999999,ChIJR7dMc_LZGg0RpqURX5Mg4s4,Portugal,Faro District,Silves,"Silves, Portugal"
305,Algarve,Tavira,37.1335906,-7.643001899999999,ChIJJWaO0HwDEA0RRd0tOcUDRdQ,Portugal,Faro District,Tavira,"8800 Tavira, Portugal"
306,Algarve,Vila do Bispo,37.0829204,-8.9121095,ChIJKy_0giVJGw0R93HidwDvK18,Portugal,Faro District,Vila do Bispo,"8650 Vila do Bispo, Portugal"
307,Algarve,Vila Real de Santo António,37.1937766,-7.420787899999999,ChIJNXz7_GMiEA0Rmh8-yQAVANw,Portugal,Faro District,Vila Real de Santo António,"Vila Real de Santo António, Portugal"
311,Região Autónoma dos Açores,Vila do Porto,36.9568069,-25.1412354,ChIJHfhIuDyRZwsRGyHa8fZRUAc,Portugal,Açores,Vila do Porto,"Vila do Porto, 9580, Portugal"
313,Região Autónoma dos Açores,Lagoa [R.A.A.],37.1346307,-8.451247,ChIJqdPvp_7WGg0RyuVyn1Lyvyc,Portugal,Faro District,Lagoa,"8400 Lagoa, Portugal"
314,Região Autónoma dos Açores,Nordeste,37.8324954,-25.1459445,ChIJISRqDcQdXQsRXdiGhMIPX4k,Portugal,Açores,Nordeste,"Nordeste, 9630, Portugal"
315,Região Autónoma dos Açores,Ponta Delgada,37.7394207,-25.6686725,ChIJlw6wdswqQwsRFsRvTvKAVXY,Portugal,Azores,São Miguel,"Ponta Delgada, Portugal"
316,Região Autónoma dos Açores,Povoação,37.7486524,-25.2390903,ChIJn9rFmA0fXQsRkD-Q5L3rAAQ,Portugal,Azores,Povoação,"9650 Povoacao, Portugal"
317,Região Autónoma dos Açores,Ribeira Grande,37.8226777,-25.5238789,ChIJjTB99cvZXAsRoD-Q5L3rAAQ,Portugal,Azores,Ribeira Grande,"9600 Ribeira Grande, Portugal"
318,Região Autónoma dos Açores,Vila Franca do Campo,37.7157269,-25.4345063,ChIJlz4wp10mXQsR8R4AhiKAubI,Portugal,Azores,Vila Franca do Campo,"9680 Vila Franca do Campo, Portugal"
320,Região Autónoma dos Açores,Angra do Heroísmo,38.6635375,-27.2293969,ChIJBTvkER5_RgsRBgaj9bnZ8sY,Portugal,Azores,Terceira,"9700 Angra do Heroísmo, Portugal"
321,Região Autónoma dos Açores,Vila da Praia da Vitória,38.7798819,-27.1529458,ChIJXQV3xCHYRQsRZPzYfxNzsKk,Portugal,Azores,Terceira,"9760 Vila Nova, Portugal"
323,Região Autónoma dos Açores,Santa Cruz da Graciosa,39.0862753,-28.0156811,ChIJv5sfSi5_SAsRkD6Q5L3rAAQ,Portugal,Azores,Graciosa,"Santa Cruz da Graciosa, Portugal"
325,Região Autónoma dos Açores,Calheta [R.A.A.],32.7331781,-17.1928035,ChIJrWR7uIVRYAwRPWwB6gaJt0U,Portugal,Madeira,Madeira,"9370 Estreito da Calheta, Portugal"
326,Região Autónoma dos Açores,Velas,38.6839843,-28.2131879,ChIJl9faFXPHRwsRsD6Q5L3rAAQ,Portugal,Azores,San Jorge,"9800 Velas, Portugal"
328,Região Autónoma dos Açores,Lajes do Pico,38.39976770000001,-28.2519641,ChIJgakZpP2jRwsRID-Q5L3rAAQ,Portugal,Azores,Pico,"9930 Lajes do Pico, Portugal"
329,Região Autónoma dos Açores,Madalena,41.10181,-8.647329,ChIJq7qhA1JlJA0RsEqQ5L3rAAU,Portugal,Porto District,Vila Nova de Gaia,"Madalena, 4405 Vila Nova de Gaia, Portugal"
330,Região Autónoma dos Açores,São Roque do Pico,38.5160544,-28.3140488,ChIJY-KOW0-9RwsRQD-Q5L3rAAQ,Portugal,Azores,Pico,"São Roque do Pico, Portugal"
332,Região Autónoma dos Açores,Horta,38.5348447,-28.6299812,ChIJXzht8NeKRwsRCeeNmTYc6DU,Portugal,Azores,Faial,"Horta, Portugal"
334,Região Autónoma dos Açores,Lajes das Flores,39.3782624,-31.1781975,ChIJwdj33NAjMgsRAD-Q5L3rAAQ,Portugal,Azores,Flores,"Lajes das Flores, Portugal"
335,Região Autónoma dos Açores,Santa Cruz das Flores,39.453672,-31.1275738,ChIJN4mG6zokMgsRcNGdRmokQMs,Portugal,Azores,Flores,"Santa Cruz das Flores, Portugal"
337,Região Autónoma dos Açores,Corvo,39.6729436,-31.1144706,ChIJr0OcnJVHMgsR4D6Q5L3rAAQ,Portugal,Azores,Corvo,"9980 Vila do Corvo, Portugal"
341,Região Autónoma da Madeira,Calheta [R.A.M.],32.7331781,-17.1928035,ChIJrWR7uIVRYAwRPWwB6gaJt0U,Portugal,Madeira,Madeira,"9370 Estreito da Calheta, Portugal"
342,Região Autónoma da Madeira,Câmara de Lobos,32.6607565,-16.9867462,ChIJyR0p1JleYAwR0D-Q5L3rAAQ,Portugal,Madeira,Madeira,"Câmara de Lobos, Portugal"
343,Região Autónoma da Madeira,Funchal,32.6506129,-16.9082357,ChIJq4sfUMNfYAwROaHNFSxN2P8,Portugal,Madeira,Madeira,"Funchal, Portugal"
344,Região Autónoma da Madeira,Machico,32.7318412,-16.791291,ChIJNWG5TApjYAwRsip0tQK8Kos,Portugal,Madeira,Madeira,"Machico, Portugal"
345,Região Autónoma da Madeira,Ponta do Sol,32.6814913,-17.1019871,ChIJ9ZNr2FhXYAwRXFkpnOOotnU,Portugal,Madeira,Ponta do Sol,"9360 Ponta do Sol, Portugal"
346,Região Autónoma da Madeira,Porto Moniz,32.8659619,-17.1673851,ChIJWe6SLqtPYAwREECQ5L3rAAQ,Portugal,Madeira,Madeira,"Porto Moniz, Portugal"
347,Região Autónoma da Madeira,Ribeira Brava,32.671409,-17.0646395,ChIJP4nwPQpZYAwRpQT3iMD8F3Y,Portugal,Madeira,Madeira,"9350 Ribeira Brava, Portugal"
348,Região Autónoma da Madeira,Santa Cruz,39.1340863,-9.3814444,ChIJXV00g4M6Hw0RfGbsn014wsM,Portugal,Lisboa,Torres Vedras,"Santa Cruz, 2560-498 Silveira, Portugal"
349,Região Autónoma da Madeira,Santana,32.8051351,-16.881891,ChIJa1Wtk7dnYAwRyc_mGzEhae8,Portugal,Madeira,Madeira,"9230 Santana, Portugal"
350,Região Autónoma da Madeira,São Vicente,32.803304,-17.0455668,ChIJRc0CdNREYAwR1lYyzHXZ7Zs,Portugal,Madeira,Madeira,"9240 Sao Vicente, Portugal"
352,Região Autónoma da Madeira,Porto Santo,33.05,-16.35,ChIJsytbpU3dXwwRtCxE2Ta2B0U,Portugal,Madeira,Porto Santo,"9400-226 Porto Santo, Portugal"
