,Regiao,Cidades,latitude,longitude,place_id,country,administrative_area_level_1,administrative_area_level_2,formatted_address,Porto_distance,Porto_duration,Porto_transit_distance,Porto_transit_duration,Lisboa_distance,Lisboa_duration,Lisboa_transit_distance,Lisboa_transit_duration
4,Norte,Arcos de Valdevez,41.8458289,-8.419221300000002,ChIJ1_xGolAJJQ0RU5yLJPgiDi4,Portugal,Viana do Castelo District,Arcos de Valdevez,"4970 Arcos de Valdevez, Portugal",103,01:10:00,148,02:25:00,408,04:01:00,453,06:00:00
5,Norte,Caminha,41.8732082,-8.837845399999999,ChIJyTd9DHfAJQ0RtLXKx4Ks6ss,Portugal,Viana do Castelo District,Caminha,"4910 Caminha, Portugal",98.0,01:07:00,103,01:40:00,409,04:02:00,417,05:05:00
6,Norte,Melgaço,42.1150676,-8.259597399999999,ChIJr1JmSJ9lJQ0RadJplYAyzZc,Portugal,Viana do Castelo District,Melgaço,"4960 Melgaço, Portugal",158,01:51:00,235,06:45:00,464,04:42:00,530,10:08:00
7,Norte,Monção,42.0771855,-8.4819441,ChIJd-EaWft3JQ0RpVKUcLAc5-E,Portugal,Viana do Castelo District,Monção,"4950 Monção, Portugal",136,01:32:00,148,02:39:00,442,04:24:00,462,06:04:00
8,Norte,Paredes de Coura,41.913112,-8.5614378,ChIJ-SkQ8-OhJQ0RJFOypD-YdGk,Portugal,Viana do Castelo District,Paredes de Coura,"4940 Coura, Portugal",116,01:15:00,129,03:40:00,422,04:06:00,443,10:10:00
9,Norte,Ponte da Barca,41.8447762,-8.1994276,ChIJD0BvfSAJJQ0RgDreyZWPDhs,Portugal,Viana do Castelo District,Ponte da Barca,"Ponte da Barca, 4980-020, Portugal",126,01:33:00,Não disponível,00:00:00,432,04:25:00,Não disponível,00:00:00
10,Norte,Ponte de Lima,41.7622565,-8.5832339,ChIJEQcPA_GlJQ0RzmZ8_rWwtzQ,Portugal,Viana do Castelo District,Ponte de Lima,"4990 Ponte de Lima, Portugal",86.2,00:57:00,122,01:55:00,392,03:48:00,428,05:30:00
11,Norte,Valença,42.0269543,-8.642285,ChIJkwCBc4qaJQ0Rkiw05LDISpg,Portugal,Viana do Castelo District,Valença,"4930 Valença, Portugal",119,01:12:00,130,02:10:00,424,04:04:00,444,05:35:00
12,Norte,Viana do Castelo,41.6918275,-8.8344101,ChIJc2ro9s63JQ0R_R3SXX4WTf4,Portugal,Viana do Castelo District,Viana do Castelo,"Viana do Castelo, Portugal",73.4,00:53:00,78.3,01:00:00,384,03:49:00,392,04:25:00
13,Norte,Vila Nova de Cerveira,41.9383326,-8.744077299999999,ChIJVTY-eGSWJQ0RyBoIFMHMkcQ,Portugal,Viana do Castelo District,Vila Nova de Cerveira,"4920 Vila Nova de Cerveira, Portugal",102,01:07:00,115,01:55:00,412,04:03:00,429,05:20:00
15,Norte,Amares,41.64661419999999,-8.3417006,ChIJo8JRYmECJQ0RhipMqQ--P9o,Portugal,Braga,Amares,"Amares, 4720, Portugal",74.4,01:04:00,73.2,02:40:00,380,03:55:00,384,06:00:00
16,Norte,Barcelos,41.5569268,-8.6160674,ChIJGfCrgTNSJA0RYG-oqk0UhqU,Portugal,Braga,Barcelos,"Barcelos, Portugal",63.4,00:48:00,122,06:43:00,374,03:43:00,427,10:18:00
17,Norte,Braga,41.5454486,-8.426506999999999,ChIJZ9j1bLz-JA0RGOLRYkEFXbw,Portugal,Braga,Braga,"Braga, Portugal",57.2,00:43:00,58.8,01:05:00,363,03:34:00,370,04:45:00
18,Norte,Esposende,41.5323512,-8.7830801,ChIJJ7JQobpLJA0R0tFXlIaLB6Y,Portugal,Braga,Esposende,"4740 Esposende, Portugal",50.6,00:38:00,66.3,01:00:00,361,03:33:00,372,04:35:00
19,Norte,Terras de Bouro,41.7167409,-8.306244399999999,ChIJ41gHaLUEJQ0R3YAUsK5xlcg,Portugal,Braga,Terras de Bouro,"4840 Terras de Bouro, Portugal",84.7,01:13:00,86.3,02:35:00,390,04:04:00,397,05:55:00
20,Norte,Vila Verde,41.6507161,-8.433281299999999,ChIJXcH0A6YBJQ0RlmHUDtZue0w,Portugal,Braga,Vila Verde,"4730 Vila Verde, Portugal",71.3,00:54:00,69.4,01:35:00,377,03:46:00,380,04:55:00
22,Norte,Cabeceiras de Basto,41.5116939,-7.9979753,ChIJZzrjfJLaJA0RR2cf9hA3jiU,Portugal,Braga,Cabeceiras de Basto,"4860 Cabeceiras de Basto, Portugal",95.6,01:04:00,Não disponível,00:00:00,402,03:54:00,Não disponível,00:00:00
23,Norte,Fafe,41.4507439,-8.1754442,ChIJrSfp0V_oJA0R_iRjtO7TspU,Portugal,Braga,Fafe,"4820 Fafe, Portugal",70.7,00:50:00,66.0,01:25:00,377,03:40:00,395,04:55:00
24,Norte,Guimarães,41.44253,-8.2917857,ChIJs2vwHxnwJA0RShUcmOiE4lM,Portugal,Braga,Guimarães,"Guimaraes, Portugal",57.4,00:44:00,55.1,01:12:00,363,03:36:00,370,04:57:00
25,Norte,Mondim de Basto,41.4112348,-7.9526065,ChIJi84o9K3IJA0RMN3mozsbSdo,Portugal,Vila Real District,Mondim de Basto,"4880 Mondim de Basto, Portugal",86.7,01:08:00,153,02:05:00,386,03:54:00,482,05:35:00
26,Norte,Póvoa de Lanhoso,41.5784784,-8.2689012,ChIJibIfPAfjJA0RiTcDEvKQCGE,Portugal,Braga,Póvoa de Lanhoso,"4830 Póvoa de Lanhoso, Portugal",76.4,01:01:00,Não disponível,00:00:00,382,03:52:00,Não disponível,00:00:00
27,Norte,Vieira do Minho,41.6343218,-8.141619799999999,ChIJ5TejdALgJA0RzaHKibJX3oQ,Portugal,Braga,Vieira do Minho,"4850 Vieira do Minho, Portugal",91.2,01:16:00,Não disponível,00:00:00,397,04:08:00,Não disponível,00:00:00
28,Norte,Vila Nova de Famalicão,41.4116818,-8.5224051,ChIJf2S5E1xYJA0RM_IDcSzNiTk,Portugal,Braga,Vila Nova de Famalicão,"4760 Vila Nova de Famalicão, Portugal",41.7,00:34:00,32.8,00:56:00,347,03:25:00,349,04:00:00
29,Norte,Vizela,41.3764108,-8.309834799999999,ChIJjcywsADyJA0R7ciciZMZujY,Portugal,Braga,Vizela,"4815 São João de Caldas de Vizela, Portugal",53.6,00:45:00,47.9,01:09:00,357,03:37:00,363,04:54:00
31,Norte,Arouca,40.9312766,-8.237704899999999,ChIJS0RQwMdjIw0RB3J692DS57o,Portugal,Aveiro District,Arouca,"4540 Arouca, Portugal",62.1,00:55:00,Não disponível,00:00:00,307,03:19:00,Não disponível,00:00:00
32,Norte,Espinho,41.0071914,-8.641033199999999,ChIJm6gxzcd5JA0R-APg9bIvyHM,Portugal,Aveiro District,Espinho,"4500 Espinho, Portugal",21.9,00:25:00,19.4,00:26:00,297,02:54:00,334,04:17:00
33,Norte,Gondomar,41.13955989999999,-8.5291423,ChIJDb7NRSdjJA0RMxhrr82-k-0,Portugal,Porto District,Gondomar,"4420-317 Gondomar, Portugal",16.1,00:19:00,9.7,00:57:00,315,03:04:00,323,04:48:00
34,Norte,Maia,41.2326543,-8.622938699999999,ChIJ4zGTOfhmJA0RfmcqcLKlVKk,Portugal,Porto District,Maia,"4470 Maia, Portugal",11.1,00:14:00,17.4,00:54:00,322,03:09:00,329,04:19:00
35,Norte,Matosinhos,41.182863,-8.688951,ChIJi0gLpZ1oJA0R0DiQ5L3rAAQ,Portugal,Porto District,Matosinhos,"Matosinhos, Portugal",8.3,00:14:00,16.9,01:00:00,319,03:09:00,328,04:30:00
36,Norte,Oliveira de Azeméis,40.839305,-8.4770079,ChIJrd0H8mV4Iw0RQeWnGySjD9w,Portugal,Aveiro District,Oliveira de Azeméis,"3720 Oliveira de Azeméis, Portugal",50.4,00:39:00,52.1,02:04:00,277,02:43:00,301,04:19:00
37,Norte,Paredes,41.2051674,-8.3303867,ChIJn0DJbROOJA0RYbGJDwN8S-w,Portugal,Porto District,Paredes,"4580 Paredes, Portugal",35.4,00:29:00,34.9,00:46:00,335,03:14:00,350,05:16:00
38,Norte,Porto,41.1579438,-8.629105299999999,ChIJwVPhxKtlJA0RvBSxQFbZSKY,Portugal,Porto District,Porto District,"Porto, Portugal",1 m,00:01:00,Não disponível,00:00:00,313,03:04:00,314,03:15:00
39,Norte,Póvoa de Varzim,41.3828815,-8.759989299999999,ChIJnwa6NJBFJA0R29hwXPyZ1qY,Portugal,Porto District,Póvoa de Varzim,"4490 Povoa de Varzim, Portugal",34.1,00:30:00,44.4,00:40:00,345,03:25:00,358,04:00:00
40,Norte,Santa Maria da Feira,40.9257594,-8.5478589,ChIJWVRlid2AIw0ROqJ0gQsko44,Portugal,Aveiro District,Santa Maria da Feira,"4520 Santa Maria da Feira, Portugal",33.3,00:28:00,28.5,00:30:00,286,02:47:00,285,02:55:00
41,Norte,Santo Tirso,41.3431376,-8.4738078,ChIJeVoMe2FfJA0RZ1lFOuyeFKc,Portugal,Porto District,Santo Tirso,"4780 Santo Tirso, Portugal",33.8,00:28:00,29.7,00:40:00,339,03:20:00,344,04:25:00
42,Norte,São João da Madeira,40.90052379999999,-8.490671599999999,ChIJm_z2efuBIw0RSobLphvom0M,Portugal,Aveiro District,São João da Madeira,"3700 São João da Madeira, Portugal",42.4,00:35:00,39.3,00:59:00,285,02:50:00,355,04:37:00
43,Norte,Trofa,41.3373686,-8.559698899999999,ChIJy1SrHI9eJA0RUQ7_ekDWrls,Portugal,Porto District,Trofa,"4785 Trofa, Portugal",24.9,00:27:00,23.0,00:38:00,339,03:22:00,338,04:34:00
44,Norte,Vale de Cambra,40.8424421,-8.3960727,ChIJr7nwmxt6Iw0RDQvNET0OrbA,Portugal,Aveiro District,Vale de Cambra,"3730 Vale de Cambra, Portugal",49.6,00:40:00,Não disponível,00:00:00,288,02:52:00,Não disponível,00:00:00
45,Norte,Valongo,41.1977783,-8.495222799999999,ChIJJ49ZXhFiJA0RjPcWlM0SYcg,Portugal,Porto District,Valongo,"Valongo, Portugal",19.4,00:22:00,15.1,00:30:00,325,03:13:00,330,04:50:00
46,Norte,Vila do Conde,41.33333630000001,-8.6820636,ChIJo9z9G29DJA0RUDmQ5L3rAAQ,Portugal,Porto District,Vila do Conde,"Vila do Conde, Portugal",24.5,00:25:00,51.4,02:09:00,335,03:20:00,370,05:04:00
47,Norte,Vila Nova de Gaia,41.1238759,-8.611785099999999,ChIJ8TZAdCdlJA0Rdd2tUs9QfWc,Portugal,Porto District,Vila Nova de Gaia,"Vila Nova de Gaia, Portugal",8.9,00:14:00,3.9,00:06:00,306,03:00:00,320,03:59:00
49,Norte,Boticas,41.6984124,-7.6710889,ChIJjzftG1rWOg0RwBuR5L3rAAU,Portugal,Vila Real District,Boticas,"Boticas, 5460 Boticas, Portugal",158,01:46:00,157,03:47:00,443,04:33:00,508,07:17:00
50,Norte,Chaves,41.7158962,-7.4814163,ChIJrS32IGbeOg0RjShDprh4I2c,Portugal,Vila Real District,Chaves,"Chaves, Portugal",149,01:35:00,159,03:10:00,434,04:23:00,470,06:40:00
51,Norte,Montalegre,41.7719014,-7.828636800000001,ChIJRa1GozgsJQ0RgDyQ5L3rAAQ,Portugal,Vila Real District,Montalegre,"Montalegre, 5470, Portugal",141,01:52:00,244,07:01:00,447,04:42:00,562,10:41:00
52,Norte,Ribeira de Pena,41.5199011,-7.793851,ChIJ5TJDL8XSJA0RG-C-9TBM0Ns,Portugal,Vila Real District,Ribeira de Pena,"4870 Ribeira de Pena, Portugal",108,01:12:00,143,02:11:00,414,04:02:00,453,05:51:00
53,Norte,Valpaços,41.608716,-7.3109056,ChIJeRu5MHsbOw0RexOPDEyGIDE,Portugal,Vila Real,Valpaços,"5430 Valpaços, Portugal",165,01:45:00,177,02:20:00,440,04:27:00,483,05:45:00
54,Norte,Vila Pouca de Aguiar,41.5002387,-7.6432318,ChIJLeqtLhkwOw0RQq6uH5k7M7g,Portugal,Vila Real District,Vila Pouca de Aguiar,"5450 Vila Pouca de Aguiar, Portugal",121,01:19:00,236,05:55:00,402,04:04:00,542,09:30:00
56,Norte,Amarante,41.2732068,-8.0822829,ChIJ47J5DPC-JA0R7gV_bgHmbcM,Portugal,Porto District,Amarante,"4600 Amarante, Portugal",62.0,00:46:00,80.6,01:40:00,362,03:31:00,386,05:15:00
57,Norte,Baião,41.1447349,-7.981084500000001,ChIJv3EQZNG6JA0RcDiQ5L3rAAQ,Portugal,Porto District,Baião,"Baião, Portugal",82.1,01:10:00,Não disponível,00:00:00,382,03:56:00,Não disponível,00:00:00
58,Norte,Castelo de Paiva,41.0409444,-8.2714736,ChIJyf9Hv_ScJA0RRQNrDwDJTnQ,Portugal,Aveiro District,Castelo de Paiva,"4550 Castelo de Paiva, Portugal",52.6,00:51:00,Não disponível,00:00:00,333,03:25:00,Não disponível,00:00:00
59,Norte,Celorico de Basto,41.3889737,-7.999703599999999,ChIJO8PzfIrGJA0RfO98Mne4ITo,Portugal,Braga,Celorico de Basto,"4890 Celorico de Basto, Portugal",81.7,01:01:00,Não disponível,00:00:00,381,03:47:00,Não disponível,00:00:00
60,Norte,Cinfães,41.071713,-8.0898477,ChIJQ-DhLoGhJA0R4yLcY88O1Js,Portugal,Viseu District,Cinfães,"4690 Cinfães, Portugal",81.7,01:17:00,Não disponível,00:00:00,357,03:50:00,Não disponível,00:00:00
61,Norte,Felgueiras,41.3664104,-8.1971968,ChIJm0BffJTrJA0RFl8_szWZTaI,Portugal,Porto District,Felgueiras,"4610 Felgueiras, Portugal",61.5,00:49:00,66.0,01:35:00,361,03:33:00,399,05:10:00
62,Norte,Lousada,41.2778714,-8.2815432,ChIJt9c2C-2SJA0RkMLWsBJARH8,Portugal,Porto District,Lousada,"4620 Lousada, Portugal",47.5,00:39:00,46.5,01:14:00,350,03:23:00,383,04:44:00
63,Norte,Marco de Canaveses,41.1855038,-8.149687,ChIJ7ypaz8eXJA0RbwX7y1jzJV0,Portugal,Porto District,Marco de Canaveses,"Marco de Canaveses, Portugal",56.4,00:45:00,59.8,01:15:00,356,03:30:00,375,05:45:00
64,Norte,Paços de Ferreira,41.2782274,-8.3750991,ChIJbetsW8CMJA0RYPOQ5L3rAAU,Portugal,Porto District,Paços de Ferreira,"4590 Paços de Ferreira, Portugal",38.4,00:35:00,35.6,01:30:00,338,03:19:00,344,05:10:00
65,Norte,Penafiel,41.2070076,-8.2831551,ChIJLTiGmemRJA0RoPaQ5L3rAAU,Portugal,Porto District,Penafiel,"4560 Penafiel, Portugal",40.6,00:32:00,40.4,01:23:00,340,03:18:00,355,05:53:00
66,Norte,Resende,41.0676876,-7.9374948,ChIJ8aKGXfWlJA0RPTBvU-PWr2M,Portugal,Viseu District,Resende,"Resende, 4660, Portugal",102,01:33:00,Não disponível,00:00:00,344,03:37:00,Não disponível,00:00:00
68,Norte,Alijó,41.2772797,-7.477030200000001,ChIJuRR4WotBOw0RAl9sN6KwN-8,Portugal,Vila Real,Alijó,"5070 Alijó, Portugal",133,01:27:00,137,01:50:00,408,04:09:00,447,05:30:00
69,Norte,Armamar,41.1090606,-7.693217700000001,ChIJA2u4h7JWOw0RNszftnQ9Kzs,Portugal,Viseu,Armamar,"5110 Armamar, Portugal",132,01:34:00,118,02:49:00,364,03:49:00,454,06:19:00
70,Norte,Carrazeda de Ansiães,41.2428631,-7.307555700000001,ChIJGeCZ0a1vOw0R2KCSQEoBfEk,Portugal,Bragança District,Carrazeda de Ansiães,"5140 Carrazeda de Ansiães, Portugal",147,01:36:00,173,02:15:00,422,04:18:00,483,05:55:00
71,Norte,Freixo de Espada à Cinta,41.0900806,-6.8087993,ChIJaf_axnKKOw0RgcIEryXSQuM,Portugal,Bragança District,Freixo de Espada à Cinta,"5180 Freixo de Espada à Cinta, Portugal",239,02:38:00,225,04:00:00,418,04:41:00,566,07:30:00
72,Norte,Lamego,41.0953745,-7.812380500000001,ChIJdeek6GOrJA0R-3diSpAA9OY,Portugal,Viseu District,Lamego,"5100 Lamego, Portugal",130,01:29:00,195,02:45:00,347,03:35:00,362,04:50:00
73,Norte,Mesão Frio,41.1598648,-7.889922799999999,ChIJ15VloBmuJA0RuFGDb8ozBZU,Portugal,Vila Real District,Mesão Frio,"5040 Mesão Frio, Portugal",84.8,01:09:00,Não disponível,00:00:00,385,03:55:00,Não disponível,00:00:00
74,Norte,Moimenta da Beira,40.9817183,-7.613923300000001,ChIJySfQaS2mPA0RVRA5mbnmklc,Portugal,Viseu District,Moimenta da Beira,"3620 Moimenta da Beira, Portugal",156,01:54:00,184,03:30:00,362,03:53:00,351,04:45:00
75,Norte,Murça,41.410051,-7.4489531,ChIJr0EOtTs-Ow0Rnb4PKOVANME,Portugal,Vila Real,Murça,"5090 Murça, Portugal",126,01:21:00,129,02:20:00,401,04:03:00,444,05:35:00
76,Norte,Penedono,40.9903208,-7.3943499,ChIJy2bs7veePA0RuGcHlMavOI8,Portugal,Viseu District,Penedono,"3630 Penedono, Portugal",174,02:17:00,232,03:20:00,379,03:54:00,371,05:10:00
77,Norte,Peso da Régua,41.1918437,-7.730807,ChIJQ92mS0RNOw0RoDyQ5L3rAAQ,Portugal,Vila Real District,Peso da Régua,"Peso da Régua, Portugal",113,01:21:00,Não disponível,00:00:00,363,03:48:00,Não disponível,00:00:00
78,Norte,Sabrosa,41.2689661,-7.5752443,ChIJMYq-RitEOw0RGwqMu_LBnQ8,Portugal,Vila Real,Sabrosa,"5060 Sabrosa, Portugal",111,01:16:00,116,02:06:00,381,03:54:00,422,05:31:00
79,Norte,Santa Marta de Penaguião,41.2098807,-7.784071899999999,ChIJTdnq-S1NOw0RfgHjtvOcZV0,Portugal,Vila Real District,Santa Marta de Penaguião,"5030 Santa Marta de Penaguião, Portugal",108,01:23:00,112,02:29:00,361,03:44:00,425,05:59:00
80,Norte,São João da Pesqueira,41.14773810000001,-7.405053300000001,ChIJA_8k7BVnOw0RSkSq4yiMBTU,Portugal,Viseu District,São João da Pesqueira,"5130 São João da Pesqueira, Portugal",159,02:06:00,256,03:45:00,401,04:14:00,395,05:35:00
81,Norte,Sernancelhe,40.8998417,-7.4900188,ChIJu8Bj8iyjPA0REm8aH_dSL2I,Portugal,Viseu District,Sernancelhe,"3640 Sernancelhe, Portugal",176,02:08:00,216,03:00:00,348,03:52:00,356,04:50:00
82,Norte,Tabuaço,41.1162713,-7.5674579,ChIJzQfftypaOw0RQ2k2RLu6nXc,Portugal,Viseu District,Tabuaço,"5120 Tabuaço, Portugal",144,01:49:00,216,04:05:00,379,04:05:00,383,05:20:00
83,Norte,Tarouca,41.0174461,-7.775003600000001,ChIJ4SgMelNVIw0RJKrrCGIMuwY,Portugal,Viseu District,Tarouca,"3610 Tarouca, Portugal",136,01:33:00,Não disponível,00:00:00,344,03:37:00,Não disponível,00:00:00
84,Norte,Torre de Moncorvo,41.1742164,-7.0534405,ChIJb3ZtAE6COw0RPHYMlE8GwMs,Portugal,Bragança,Torre de Moncorvo,"5160 Torre de Moncorvo, Portugal",191,02:05:00,187,02:30:00,406,04:06:00,528,06:00:00
85,Norte,Vila Nova de Foz Côa,41.0822466,-7.1403598,ChIJ4XDAR6p_Ow0RdeVzTlUUieQ,Portugal,Guarda District,Vila Nova de Foz Côa,"5150 Vila Nova de Foz Côa, Portugal",199,02:13:00,171,03:22:00,388,03:53:00,507,06:52:00
86,Norte,Vila Real,41.3011532,-7.7409832,ChIJL_SzFKlLOw0RA3aSE13pF0w,Portugal,Vila Real District,Vila Real,"5000 Vila Real, Portugal",97.2,01:08:00,119,02:15:00,382,03:53:00,424,05:50:00
88,Norte,Alfândega da Fé,41.344363,-6.9601807,ChIJY08MQgiZOw0RYkYM6otCv48,Portugal,Bragança District,Alfândega da Fé,"5350 Alfândega da Fé, Portugal",183,01:58:00,202,02:30:00,428,04:21:00,520,07:00:00
89,Norte,Bragança,41.8061131,-6.756737999999999,ChIJR8I_LP1JOg0RHBm9CtWaNtc,Portugal,Bragança District,Bragança,"5300 Bragança, Portugal",210,02:11:00,216,02:35:00,485,04:53:00,537,06:30:00
90,Norte,Macedo de Cavaleiros,41.5370005,-6.9617993,ChIJOYF9XqalOw0RyfFJLJS7zDg,Portugal,Bragança,Macedo de Cavaleiros,"5340 Macedo de Cavaleiros, Portugal",176,01:52:00,173,02:00:00,452,04:34:00,494,05:55:00
91,Norte,Miranda do Douro,41.4995412,-6.2712311,ChIJS0UQYmNmOQ0RCUdpzDlHbqs,Portugal,Bragança District,Miranda do Douro,"5210 Miranda do Douro, Portugal",261,02:46:00,292,04:30:00,506,05:09:00,633,08:00:00
92,Norte,Mirandela,41.4853545,-7.180871100000001,ChIJgSGFNM0OOw0RP7WRmCCEMu4,Portugal,Bragança District,Mirandela,"5370 Mirandela, Portugal",151,01:38:00,146,01:35:00,426,04:20:00,Não disponível,00:00:00
93,Norte,Mogadouro,41.3426456,-6.7099863,ChIJg7_is3XrOw0RR5OW4oe2DwQ,Portugal,Bragança District,Mogadouro,"5200 Mogadouro, Portugal",217,02:18:00,242,03:45:00,462,04:41:00,584,07:15:00
94,Norte,Vila Flor,41.31888560000001,-7.1574784,ChIJq3OnZSN0Ow0RcVq_qDdp_mI,Portugal,Bragança District,Vila Flor,"Vila Flor, 5360, Portugal",162,01:46:00,163,02:35:00,430,04:23:00,504,06:05:00
95,Norte,Vimioso,41.5844451,-6.529121099999999,ChIJJfnFQI_QOw0RJNcHN9-0ecc,Portugal,Bragança District,Vimioso,"5230 Vimioso, Portugal",227,02:34:00,249,03:20:00,499,05:11:00,564,07:05:00
96,Norte,Vinhais,41.8307225,-7.009300499999999,ChIJ6X9VQdNQOg0Rh-3d8Fg4QH4,Portugal,Bragança,Vinhais,"5320 Vinhais, Portugal",206,02:19:00,257,03:46:00,481,05:01:00,571,07:41:00
99,Centro,Alcobaça,39.5503343,-8.9730531,ChIJDxLPS8qlGA0Rk5T5ZnW2A3w,Portugal,Leiria District,Alcobaça,"2460 Alcobaça, Portugal",212,02:02:00,242,04:10:00,121,01:26:00,134,01:55:00
100,Centro,Alenquer,39.0927696,-9.0571089,ChIJq5CWW1_QGA0RgDaQ5L3rAAQ,Portugal,Lisbon,Alenquer,"Alenquer, 2580, Portugal",288,02:46:00,Não disponível,00:00:00,52.3,00:54:00,Não disponível,00:00:00
101,Centro,Arruda dos Vinhos,38.9829298,-9.0776401,ChIJJ8_Fc0bWGA0Rtl9iRJGMVNE,Portugal,Lisbon,Arruda dos Vinhos,"2630 Arruda dos Vinhos, Portugal",290,02:40:00,328,04:39:00,35.7,00:38:00,52.4,01:25:00
102,Centro,Bombarral,39.2680991,-9.1585113,ChIJ0Sp4VB3LGA0RkNeQ5L3rAAU,Portugal,Leiria District,Bombarral,"2540 Bombarral, Portugal",252,02:22:00,413,06:04:00,72.1,00:57:00,92.7,01:52:00
103,Centro,Cadaval,39.2433402,-9.1027805,ChIJqSLvTdjLGA0RgxlstooFBg0,Portugal,Lisbon,Cadaval,"2550 Cadaval, Portugal",255,02:27:00,Não disponível,00:00:00,74.9,01:05:00,Não disponível,00:00:00
104,Centro,Caldas da Rainha,39.4061871,-9.1348206,ChIJ0aKCoFCyGA0RnPyOjo0ZmrM,Portugal,Leiria District,Caldas da Rainha,"2500 Caldas da Rainha, Portugal",232,02:12:00,252,04:35:00,92.9,01:11:00,224,05:20:00
105,Centro,Lourinhã,39.2425234,-9.3132718,ChIJ4RpKTWo2Hw0RI5CL2x_d4vg,Portugal,Lisbon,Lourinhã,"2530 Lourinhã, Portugal",266,02:35:00,308,12:45:00,69.3,01:04:00,78.8,01:10:00
106,Centro,Nazaré,39.6015562,-9.0677509,ChIJF9RqLyOoGA0RbxBCr3HY0gM,Portugal,Leiria District,Nazaré,"2450 Nazaré, Portugal",213,02:04:00,227,03:15:00,121,01:28:00,118,01:50:00
107,Centro,Óbidos,39.3572399,-9.1578614,ChIJxd4e7560GA0RsztNs4piChc,Portugal,Leiria District,Óbidos Municipality,"2510 Óbidos, Portugal",239,02:14:00,426,06:20:00,83.7,01:03:00,106,02:04:00
108,Centro,Peniche,39.3603291,-9.387622,ChIJRaEFmMRFHw0R82uVoJb1yiY,Portugal,Leiria District,Peniche,"2520 Peniche, Portugal",262,02:32:00,290,04:25:00,102,01:19:00,96.5,01:35:00
109,Centro,Sobral de Monte Agraço,39.0188114,-9.1505771,ChIJk_WIn__UGA0RJ_JUd-yPiM0,Portugal,Lisbon,Sobral de Monte Agraço,"2590 Sobral de Monte Agraço, Portugal",288,02:51:00,376,05:25:00,46.1,00:50:00,65.1,01:32:00
110,Centro,Torres Vedras,39.09177589999999,-9.2600341,ChIJUxs6LcItHw0RiKarfvzELMo,Portugal,Lisbon,Torres Vedras,"2560 Torres Vedras, Portugal",274,02:37:00,351,04:05:00,54.1,00:51:00,55.7,04:50:00
112,Centro,Águeda,40.5754246,-8.446436799999999,ChIJYyaa4skLIw0RUFmQ5L3rAAU,Portugal,Aveiro District,Águeda,"3750 Agueda, Portugal",76.7,00:58:00,83.7,01:42:00,254,02:38:00,297,04:07:00
113,Centro,Albergaria-a-Velha,40.6897102,-8.4813861,ChIJjzrBdDOeIw0R7NUmtS8KH1k,Portugal,Aveiro District,Albergaria-a-Velha,"3850 Albergaria-a-Velha, Portugal",65.9,00:46:00,66.4,01:19:00,263,02:35:00,377,04:40:00
114,Centro,Anadia,40.46671569999999,-8.4622987,ChIJd5cbkPwGIw0RhOKTExI3OYc,Portugal,Aveiro District,Anadia,"Anadia, 3780, Portugal",89.2,01:01:00,94.6,02:29:00,232,02:27:00,401,06:25:00
115,Centro,Aveiro,40.6405055,-8.6537539,ChIJjeey1Q6YIw0RBx88Ac3hQjA,Portugal,Aveiro District,Aveiro,"Aveiro, Portugal",74.5,00:55:00,63.4,00:39:00,253,02:35:00,384,04:30:00
116,Centro,Estarreja,40.7528385,-8.5709856,ChIJlfEUiYacIw0RVYXsFgojzmg,Portugal,Aveiro District,Estarreja,"Estarreja, Portugal",52.5,00:41:00,48.9,00:31:00,270,02:42:00,364,04:33:00
117,Centro,Ílhavo,40.602309,-8.672371,ChIJ2SkyGSG9Iw0RDFiyU_kXTUI,Portugal,Aveiro District,Ílhavo,"3830 Ilhavo, Portugal",81.8,00:59:00,Não disponível,00:00:00,250,02:34:00,Não disponível,00:00:00
118,Centro,Murtosa,40.7370493,-8.6399173,ChIJOY_wXXOaIw0RD90wDvDJl20,Portugal,Aveiro,Murtosa,"3870 Murtosa, Portugal",59.0,00:47:00,Não disponível,00:00:00,277,02:48:00,Não disponível,00:00:00
119,Centro,Oliveira do Bairro,40.5170209,-8.498208,ChIJCWgTmpenIw0R1FXxqisqhj4,Portugal,Aveiro District,Oliveira do Bairro,"3770 Oliveira do Bairro, Portugal",82.9,00:58:00,84.0,01:41:00,250,02:32:00,410,05:47:00
120,Centro,Ovar,40.8596399,-8.6253313,ChIJb9QJhY6FIw0R9ldMxsEpU74,Portugal,Aveiro District,Ovar,"3880 Ovar, Portugal",39.1,00:38:00,35.4,00:44:00,282,02:49:00,350,04:54:00
121,Centro,Sever do Vouga,40.7334189,-8.371767199999999,ChIJ-W7fQOFzIw0R9pog2vp-7Iw,Portugal,Aveiro District,Sever do Vouga,"3740 Sever do Vouga, Portugal",77.9,01:00:00,Não disponível,00:00:00,275,02:49:00,Não disponível,00:00:00
122,Centro,Vagos,40.53119119999999,-8.6820636,ChIJxQD_C_u6Iw0RcC6Q5L3rAAQ,Portugal,Aveiro District,"Vagos, Portugal","Vagos, Portugal, 3840, Portugal",91.9,01:01:00,Não disponível,00:00:00,237,02:24:00,Não disponível,00:00:00
124,Centro,Arganil,40.218499,-8.0537909,ChIJK7L1epvcIg0RD9GbmeoqKUg,Portugal,Coimbra District,Arganil,"3300 Arganil, Portugal",160,01:43:00,173,03:03:00,258,02:41:00,262,04:08:00
125,Centro,Cantanhede,40.347032,-8.5934416,ChIJpe-2ivysIw0RzxtD_MRsCXQ,Portugal,Coimbra District,Cantanhede,"3060 Cantanhede, Portugal",107,01:11:00,Não disponível,00:00:00,220,02:15:00,Não disponível,00:00:00
126,Centro,Coimbra,40.2033145,-8.4102573,ChIJbdGsShT5Ig0RuaZCe0dkRWM,Portugal,Coimbra District,Coimbra,"Coimbra, Portugal",122,01:19:00,122,02:05:00,206,02:10:00,216,02:45:00
127,Centro,Condeixa-a-Nova,40.1141535,-8.498116399999999,ChIJNfSvmYlYIg0RHvcLdyfOl7o,Portugal,Coimbra District,Condeixa-a-Nova,"3150 Condeixa-a-Nova, Portugal",127,01:17:00,Não disponível,00:00:00,193,01:58:00,Não disponível,00:00:00
128,Centro,Figueira da Foz,40.1521398,-8.857583,ChIJQZzvPeA3Ig0R3vSp3Zgijoc,Portugal,Coimbra District,Figueira da Foz,"Figueira da Foz, Portugal",140,01:26:00,160,03:17:00,197,02:04:00,252,06:39:00
129,Centro,Góis,40.1572681,-8.1106277,ChIJO9qbDsPCIg0RuAVP_7me6Ik,Portugal,Coimbra,Góis,"3330 Góis, Portugal",160,01:53:00,Não disponível,00:00:00,227,02:39:00,Não disponível,00:00:00
130,Centro,Lousã,40.1125621,-8.2468738,ChIJSRZnapLuIg0RC1_Pb1ei8Pg,Portugal,Coimbra District,Lousã,"3200 Lousã, Portugal",156,01:37:00,157,05:23:00,208,02:14:00,238,06:11:00
131,Centro,Mealhada,40.3807921,-8.449581400000001,ChIJR-YCNuIAIw0RTR84g-Gs3OI,Portugal,Aveiro District,Mealhada,"3050 Mealhada Municipality, Portugal",100,01:03:00,100,01:59:00,221,02:13:00,394,05:30:00
132,Centro,Mira,40.4287977,-8.738126099999999,ChIJ48CixzGxIw0RZxIi4ZpGt9g,Portugal,Coimbra District,Mira,"3070 Mira, Portugal",98.8,01:06:00,170,02:55:00,227,02:19:00,239,03:40:00
133,Centro,Miranda do Corvo,40.09019809999999,-8.329640099999999,ChIJUYuUnQPyIg0RdUcRSEcvtC0,Portugal,Coimbra District,Miranda do Corvo,"3220 Miranda do Corvo, Portugal",145,01:28:00,148,05:04:00,197,02:05:00,228,05:52:00
134,Centro,Montemor-o-Velho,40.1748245,-8.6826636,ChIJJXc86jJOIg0RId6vdwipsas,Portugal,Coimbra District,Montemor-o-Velho,"3140 Montemor-o-Velho, Portugal",134,01:21:00,Não disponível,00:00:00,201,02:07:00,Não disponível,00:00:00
135,Centro,Mortágua,40.3971448,-8.2309134,ChIJh-w3SSMcIw0R3KA8OV7XRb8,Portugal,Viseu District,Mortágua,"3450 Mortágua, Portugal",125,01:30:00,158,02:50:00,248,02:34:00,256,03:25:00
136,Centro,Oliveira do Hospital,40.3608614,-7.862203200000001,ChIJibZBbe7VIg0RuuqGFr9jhcA,Portugal,Coimbra District,Oliveira do Hospital,"3400 Oliveira do Hospital, Portugal",179,01:59:00,193,02:50:00,277,02:57:00,282,03:55:00
137,Centro,Pampilhosa da Serra,40.0463704,-7.949715499999999,ChIJAQ_qlwzIIg0RuuzdAXACZjc,Portugal,Coimbra District,Pampilhosa da Serra,"3320 Pampilhosa da Serra, Portugal",212,02:21:00,389,06:18:00,229,02:39:00,270,04:10:00
138,Centro,Penacova,40.2704883,-8.28054,ChIJr7nFUgzjIg0Rcjhnv2dwK0E,Portugal,Coimbra District,Penacova,"3360 Penacova, Portugal",130,01:21:00,Não disponível,00:00:00,228,02:20:00,Não disponível,00:00:00
139,Centro,Penela,40.0282938,-8.390568499999999,ChIJtRCLwmfzIg0RXhR8JneJUj8,Portugal,Coimbra,Penela,"3230 Penela, Portugal",149,01:30:00,Não disponível,00:00:00,186,01:58:00,Não disponível,00:00:00
140,Centro,Soure,40.0610524,-8.6239203,ChIJ22z5DmFcIg0RNuod_RNaZgA,Portugal,Coimbra District,Soure,"3130 Soure, Portugal",143,01:27:00,150,02:03:00,182,01:55:00,186,02:16:00
141,Centro,Tábua,40.3617145,-8.028221799999999,ChIJ4_PIEmcnIw0RUWp6k_NtZro,Portugal,Coimbra,Tábua,"3420 Tábua, Portugal",163,01:45:00,173,02:25:00,261,02:43:00,262,03:20:00
142,Centro,Vila Nova de Poiares,40.2107667,-8.25907,ChIJI6K0NQPlIg0Ri5NIyy0_s74,Portugal,Coimbra District,Vila Nova de Poiares,"3350 Vila Nova de Poiares, Portugal",146,01:38:00,Não disponível,00:00:00,223,02:26:00,Não disponível,00:00:00
144,Centro,Alvaiázere,39.8237427,-8.3807264,ChIJHVWIggmGIg0RARM0PuQd5jo,Portugal,Leiria,Alvaiázere,"3250 Alvaiázere, Portugal",172,01:43:00,248,04:08:00,167,01:49:00,174,03:51:00
145,Centro,Ansião,39.9107177,-8.438509999999999,ChIJ9-O7yX-JIg0RXbcyD_14pJQ,Portugal,Leiria District,Ansião,"3240 Ansião, Portugal",168,01:41:00,260,03:20:00,183,01:58:00,196,02:30:00
146,Centro,Batalha,39.6583864,-8.8241787,ChIJSwEqzE11Ig0R7Ru_-mMeckA,Portugal,Leiria District,Batalha,"2440 Batalha, Portugal",196,01:54:00,264,04:52:00,140,01:41:00,139,02:30:00
147,Centro,Castanheira de Pêra,40.0058478,-8.2125382,ChIJhxtNhLmUIg0R2yQXb_ZKUBY,Portugal,Leiria District,Castanheira de Pera,"3280 Castanheira de Pêra, Portugal",176,01:49:00,326,05:13:00,192,02:07:00,208,03:05:00
148,Centro,Figueiró dos Vinhos,39.8993771,-8.2801574,ChIJESISmbKRIg0RyN_VUMC7Twk,Portugal,Leiria District,Figueiró dos Vinhos,"3260 Figueiró Dos Vinhos, Portugal",167,01:42:00,163,02:15:00,183,02:00:00,194,02:45:00
149,Centro,Leiria,39.74953310000001,-8.807682999999999,ChIJubLJNBVzIg0RbDzUOSeDr00,Portugal,Leiria District,Leiria,"Leiria, Portugal",186,01:48:00,193,02:15:00,144,01:37:00,143,01:45:00
150,Centro,Marinha Grande,39.7503802,-8.931805899999999,ChIJV9Vi11oOIg0R4poDG-2sLz4,Portugal,Leiria District,Marinha Grande,"2430 Marinha Grande, Portugal",192,01:54:00,205,04:00:00,137,01:36:00,177,04:45:00
151,Centro,Pedrógão Grande,39.91765609999999,-8.145618400000002,ChIJA0nh5iKWIg0RVvcBJWpNCE8,Portugal,Leiria,Pedrógão Grande,"3270 Pedrógão Grande, Portugal",176,01:47:00,178,02:30:00,192,02:04:00,208,03:00:00
152,Centro,Pombal,39.9162755,-8.628103099999999,ChIJ0wvWadRlIg0RLgu6gtLE914,Portugal,Leiria District,Pombal,"3100 Pombal, Portugal",159,01:34:00,167,01:35:00,169,01:47:00,253,04:57:00
153,Centro,Porto de Mós,39.5990855,-8.8307626,ChIJFXQaxSygGA0RgNyQ5L3rAAU,Portugal,Leiria District,Porto de Mós,"2480 Porto de Mós, Portugal",203,01:58:00,216,03:50:00,115,01:34:00,175,03:05:00
155,Centro,Aguiar da Beira,40.816453,-7.5454104,ChIJrexZ27q7PA0RaYvLYzsFTFU,Portugal,Guarda District,Aguiar da Beira,"3570 Aguiar da Beira, Portugal",164,01:57:00,196,02:40:00,336,03:40:00,336,04:30:00
156,Centro,Carregal do Sal,40.4347784,-7.9980002,ChIJQwgowQgmIw0RTg_zfFMt4oY,Portugal,Viseu District,Carregal do Sal,"3430 Carregal do Sal, Portugal",154,01:41:00,181,03:00:00,262,02:43:00,455,13:20:00
157,Centro,Castro Daire,40.8997924,-7.933502,ChIJtTbNzyZRIw0R7o9T22m8aro,Portugal,Viseu District,Castro Daire,"3600 Castro Daire, Portugal",149,01:34:00,162,02:20:00,320,03:16:00,336,04:30:00
158,Centro,Mangualde,40.604979,-7.762452099999999,ChIJ5zOMGKLMPA0R5D-dqKKLCuI,Portugal,Viseu District,Mangualde,"3530 Mangualde, Portugal",141,01:30:00,211,03:15:00,291,03:06:00,425,12:40:00
159,Centro,Nelas,40.537787,-7.8498679,ChIJr1N90BsyIw0RqoLEqPM-WUQ,Portugal,Viseu District,Nelas,"3520 Nelas, Portugal",139,01:35:00,200,02:55:00,279,02:54:00,437,13:00:00
160,Centro,Oliveira de Frades,40.7322554,-8.1737805,ChIJQ5eXLolrIw0RsE9NHm8equk,Portugal,Viseu District,Oliveira de Frades,"3680 Oliveira de Frades, Portugal",97.1,01:06:00,121,02:00:00,294,02:56:00,331,03:40:00
161,Centro,Penalva do Castelo,40.6767248,-7.6960437,ChIJv0I-36zJPA0RMk7tVet6ODI,Portugal,Viseu,Penalva do Castelo,"3550 Penalva do Castelo, Portugal",150,01:39:00,Não disponível,00:00:00,315,03:20:00,Não disponível,00:00:00
162,Centro,Santa Comba Dão,40.3966275,-8.1314525,ChIJAy-pV9YhIw0RIQf6C9EazW8,Portugal,Viseu District,Santa Comba Dão,"3440 Santa Comba Dão, Portugal",133,01:36:00,159,04:34:00,252,02:37:00,328,07:30:00
163,Centro,São Pedro do Sul,40.7597932,-8.0640758,ChIJaZaAyVhBIw0RphLT3AGIsfE,Portugal,Viseu District,São Pedro do Sul,"3660 São Pedro do Sul, Portugal",110,01:18:00,133,02:15:00,307,03:08:00,342,03:55:00
164,Centro,Sátão,40.7423572,-7.732120099999999,ChIJKVNcgvq0PA0RMnCE6S60a_M,Portugal,Viseu District,Sátão,"3560 Sátão, Portugal",145,01:42:00,175,02:20:00,317,03:25:00,315,04:10:00
165,Centro,Tondela,40.5170645,-8.0802569,ChIJjQFHMEwjIw0R7nuN2OlYxm0,Portugal,Viseu,Tondela,"3460 Tondela, Portugal",138,01:29:00,143,04:19:00,265,02:45:00,313,07:15:00
166,Centro,Vila Nova de Paiva,40.8508324,-7.7309812,ChIJ92JB-mSyPA0RzBntnfdflwo,Portugal,Viseu District,Vila Nova de Paiva,"3650 Vila Nova de Paiva, Portugal",155,01:46:00,161,03:02:00,327,03:29:00,327,04:17:00
167,Centro,Viseu,40.6565861,-7.9124712,ChIJzVzD6z42Iw0RmkTnIYjAv_Y,Portugal,Viseu District,Viseu,"Viseu, Portugal",127,01:24:00,119,01:55:00,289,03:04:00,287,03:25:00
168,Centro,Vouzela,40.7229086,-8.1122167,ChIJfWCIebdBIw0RtOR-hS9CMuk,Portugal,Viseu District,Vouzela,"3670 Vouzela, Portugal",103,01:12:00,129,02:10:00,300,03:01:00,339,03:50:00
170,Centro,Castelo Branco,39.8197117,-7.4964662,ChIJ23-QlShcPQ0RQB67VSpqcBw,Portugal,Castelo Branco District,Castelo Branco,"6000 Castelo Branco, Portugal",257,02:39:00,336,09:55:00,224,02:20:00,220,02:20:00
171,Centro,Idanha-a-Nova,39.924752,-7.2415895,ChIJ9Uv6rXNwPQ0RfpybjroInDY,Portugal,Castelo Branco District,Idanha-a-Nova,"6060 Idanha-A-Nova, Portugal",302,03:06:00,Não disponível,00:00:00,259,02:45:00,Não disponível,00:00:00
172,Centro,Oleiros,39.9201996,-7.9138535,ChIJuw1V0g6xIg0R43gkYawAq_Q,Portugal,Castelo Branco,Oleiros,"6160 Oleiros, Portugal",213,02:12:00,Não disponível,00:00:00,213,02:27:00,219,03:45:00
173,Centro,Penamacor,40.169313,-7.171492499999999,ChIJT6ry9lUJPQ0RF7dZ40KfIsU,Portugal,Castelo Branco District,Penamacor,"6090 Penamacor, Portugal",264,02:52:00,Não disponível,00:00:00,275,02:59:00,Não disponível,00:00:00
174,Centro,Proença-a-Nova,39.7494186,-7.9233898,ChIJ7_JGOlioIg0R3U5MT_AqYgA,Portugal,Castelo Branco,Proença-a-Nova,"6150 Proença-a-Nova, Portugal",209,02:09:00,304,05:25:00,214,02:15:00,275,04:00:00
175,Centro,Vila Velha de Ródão,39.6545102,-7.6712121,ChIJAT5l9mv8Fw0RnjBHWxsOBn0,Portugal,Castelo Branco District,Vila Velha de Ródão,"6030 Vila Velha de Ródão, Portugal",240,02:29:00,367,11:10:00,206,02:10:00,251,12:15:00
177,Centro,Abrantes,39.4621054,-8.1986484,ChIJ-7pMOrFtGA0RUvg6b6Flgk4,Portugal,Santarém District,Abrantes,"Abrantes, Portugal",235,02:17:00,256,03:20:00,143,01:36:00,192,03:00:00
178,Centro,Alcanena,39.4595628,-8.666868899999999,ChIJY74vzyiQGA0RLzBWElwEto4,Portugal,Santarém District,Alcanena,"2380 Alcanena, Portugal",217,02:03:00,264,09:46:00,108,01:16:00,140,08:11:00
179,Centro,Constância,39.4780719,-8.337225199999999,ChIJ1xK_5XNlGA0RxvPAcGmGpNs,Portugal,Santarém District,Constância,"2250 Constância, Portugal",221,02:08:00,245,03:41:00,129,01:26:00,148,03:04:00
180,Centro,Entroncamento,39.4729822,-8.478759199999999,ChIJrXoh2H1iGA0R5BNm0z_FjGk,Portugal,Santarém District,Entroncamento,"2330 Entroncamento, Portugal",216,02:04:00,230,02:10:00,116,01:19:00,106,01:01:00
181,Centro,Ferreira do Zêzere,39.6932144,-8.2905257,ChIJJyrInVudIg0Rw-lzar0QooE,Portugal,Santarém District,Ferreira do Zêzere,"2240 Ferreira do Zêzere, Portugal",186,01:50:00,Não disponível,00:00:00,150,01:40:00,157,02:15:00
182,Centro,Mação,39.60433140000001,-7.981084500000001,ChIJZfEogfUFGA0RMDqQ5L3rAAQ,Portugal,Santarém District,Mação,"Mação, 6120, Portugal",224,02:31:00,Não disponível,00:00:00,174,01:59:00,Não disponível,00:00:00
183,Centro,Ourém,39.6567985,-8.5796087,ChIJk1PsECSCGA0RUSQmFjtarzk,Portugal,Santarém District,Ourém,"2490 Ourém, Portugal",204,02:04:00,204,02:25:00,136,01:38:00,140,02:05:00
184,Centro,Sardoal,39.5375181,-8.1612773,ChIJ0cfRY71yGA0RlacPN0VtCGY,Portugal,Santarém District,Sardoal,"2230 Sardoal, Portugal",227,02:20:00,289,05:23:00,150,01:39:00,159,02:10:00
185,Centro,Sertã,39.801594,-8.0957844,ChIJ6x6eT8SjIg0RFjdFGgWn7cM,Portugal,Castelo Branco,Sertã,"6100 Sertã, Portugal",193,01:58:00,Não disponível,00:00:00,188,02:08:00,193,03:00:00
186,Centro,Tomar,39.6053819,-8.4043125,ChIJK8leGat-GA0R6uUjP8gMizY,Portugal,Santarém District,Tomar,"2300 Tomar, Portugal",200,01:59:00,253,03:07:00,137,01:33:00,129,02:04:00
187,Centro,Torres Novas,39.478072,-8.5404429,ChIJkSPra-2IGA0RiOboTNMH6GY,Portugal,Santarém District,Torres Novas,"2350 Torres Novas, Portugal",223,02:08:00,244,09:15:00,114,01:20:00,120,07:40:00
188,Centro,Vila de Rei,39.6758453,-8.1457625,ChIJcSrdqEl1GA0R3RXdF9eP9Gk,Portugal,Castelo Branco,Vila de Rei,"6110 Vila de Rei, Portugal",204,02:10:00,309,05:48:00,168,01:51:00,179,02:35:00
189,Centro,Vila Nova da Barquinha,39.45923880000001,-8.4313741,ChIJOe38zadjGA0RbwLMAP26cIU,Portugal,Santarém,Vila Nova da Barquinha,"2260 Vila Nova da Barquinha, Portugal",216,02:06:00,235,02:34:00,125,01:25:00,321,05:56:00
191,Centro,Almeida,40.7254048,-6.905594199999999,ChIJ135TLcFCPA0RMbPPb09bDBo,Portugal,Guarda District,Almeida,"6350 Almeida, Portugal",236,02:28:00,Não disponível,00:00:00,355,03:35:00,Não disponível,00:00:00
192,Centro,Belmonte,40.351063,-7.3408535,ChIJs83gXCMcPQ0RfFX4rCNPlCY,Portugal,Castelo Branco District,Belmonte,"Belmonte, 6250 Belmonte, Portugal",227,02:21:00,258,10:52:00,290,02:59:00,362,12:32:00
193,Centro,Celorico da Beira,40.6335005,-7.3927217,ChIJUVEnAp3pPA0RTM5GDYVB-Uk,Portugal,Guarda District,Celorico da Beira,"6360 Celorico da Beira, Portugal",175,01:49:00,184,02:35:00,341,03:24:00,347,04:55:00
194,Centro,Covilhã,40.2805633,-7.504327199999999,ChIJOXcFtrsjPQ0Ru5zEx4lIWKs,Portugal,Castelo Branco District,Covilhã,"6200 Covilhã, Portugal",250,02:37:00,279,03:15:00,278,02:54:00,276,03:05:00
195,Centro,Figueira de Castelo Rodrigo,40.8946241,-6.963561299999999,ChIJQaI8d9lkPA0RFuc2BzPPfAQ,Portugal,Guarda District,Figueira de Castelo Rodrigo,"6440 Figueira de Castelo Rodrigo, Portugal",237,02:43:00,Não disponível,00:00:00,376,03:51:00,Não disponível,00:00:00
196,Centro,Fornos de Algodres,40.6201957,-7.539550699999999,ChIJt-XRiEbEPA0RvedH4o4afjI,Portugal,Guarda District,Fornos de Algodres,"6370 Fornos de Algodres, Portugal",162,01:41:00,235,03:48:00,327,03:22:00,401,12:15:00
197,Centro,Fundão,40.1137263,-7.394882000000001,ChIJYSdE4Tc5PQ0RMDGQ5L3rAAQ,Portugal,Castelo Branco District,Fundão,"Fundão, Portugal",271,02:49:00,Não disponível,00:00:00,262,02:45:00,Não disponível,00:00:00
198,Centro,Gouveia,40.4923318,-7.5936526,ChIJ2cqOn27aPA0RV_1DC0eS1Eo,Portugal,Guarda District,Gouveia,"6290 Gouveia, Portugal",168,01:59:00,235,03:45:00,309,03:30:00,324,04:50:00
199,Centro,Guarda,40.5308408,-7.2221421,ChIJU8b2j8T6PA0RADWQ5L3rAAQ,Portugal,Guarda District,Guarda,"Guarda, 6300, Portugal",205,02:07:00,295,04:59:00,313,03:08:00,354,05:24:00
200,Centro,Manteigas,40.4022206,-7.538339300000001,ChIJm1mBj83YPA0Rajntt_psPZ4,Portugal,Guarda District,Manteigas,"6260 Manteigas, Portugal",196,02:39:00,Não disponível,00:00:00,313,03:23:00,Não disponível,00:00:00
201,Centro,Mêda,40.965806,-7.2612127,ChIJZ5ilf66EPA0RySfYH9vljCQ,Portugal,Guarda District,Mêda,"6430 Mêda, Portugal",224,02:19:00,Não disponível,00:00:00,375,03:45:00,Não disponível,00:00:00
202,Centro,Pinhel,40.7732736,-7.0685935,ChIJM6vZbUhgPA0RwD_03ouIPb4,Portugal,Distrito da Guarda,Pinhel,"6400 Pinhel, Portugal",214,02:19:00,Não disponível,00:00:00,344,03:30:00,Não disponível,00:00:00
203,Centro,Sabugal,40.3516608,-7.089524099999999,ChIJT188yYCpPQ0R0M-Q5L3rAAU,Portugal,Distrito da Guarda,Sabugal,"6320 Sabugal, Portugal",228,02:28:00,324,05:45:00,315,03:22:00,321,03:50:00
204,Centro,Seia,40.4148619,-7.707845000000001,ChIJaxhdbYjWPA0RoAjx9I6PihU,Portugal,Guarda District,Seia Municipality,"6270 Seia, Portugal",162,02:02:00,215,03:20:00,293,03:14:00,304,04:25:00
205,Centro,Trancoso,40.7787604,-7.3491442,ChIJ_V9t8IuTPA0REdqgpe56zA0,Portugal,Guarda District,Trancoso,"6420 Trancoso, Portugal",199,02:05:00,292,04:00:00,350,03:31:00,602,07:35:00
208,Área Metropolitana de Lisboa,Alcochete,38.7560205,-8.9603438,ChIJlTouDrk7GQ0Rflw-RNdd8Oc,Portugal,Setubal,Alcochete,"Alcochete, Portugal",329,03:06:00,331,04:03:00,33.5,00:39:00,40.4,01:34:00
209,Área Metropolitana de Lisboa,Almada,38.6765238,-9.1651047,ChIJNRH_CRw1GQ0RetYqZOvcpvw,Portugal,Setubal,Almada,"Almada, Portugal",324,03:07:00,322,04:06:00,12.1,00:20:00,24.2,01:01:00
210,Área Metropolitana de Lisboa,Amadora,38.7577603,-9.2245474,ChIJCdTnmgjNHg0Rvt33fIdAeq8,Portugal,Lisbon,Amadora,"Amadora, Portugal",317,02:59:00,319,03:43:00,13.1,00:20:00,20.6,00:48:00
211,Área Metropolitana de Lisboa,Barreiro,38.6608149,-9.0790724,ChIJNVChMEE2GQ0R97WUXVzARvY,Portugal,Setubal,Barreiro,"Barreiro, Portugal",347,03:20:00,354,04:50:00,40.0,00:40:00,56.5,01:30:00
212,Área Metropolitana de Lisboa,Cascais,38.6960614,-9.4303646,ChIJl5q3eXPEHg0RwrsHGH47DYc,Portugal,Lisbon,Cascais,"2750 Cascais, Portugal",344,03:14:00,341,04:45:00,32.2,00:31:00,Não disponível,00:00:00
213,Área Metropolitana de Lisboa,Lisboa,38.7222524,-9.1393366,ChIJO_PkYRozGQ0R0DaQ5L3rAAQ,Portugal,Lisbon,Lisbon,"Lisbon, Portugal",314,03:03:00,336,03:13:00,1 m,00:01:00,Não disponível,00:00:00
214,Área Metropolitana de Lisboa,Loures,38.8297603,-9.1663697,ChIJGcoPNC7THg0RzWHSw0rasJg,Portugal,Lisbon,Loures,"Loures, Portugal",308,02:51:00,322,04:18:00,17.0,00:27:00,21.1,00:57:00
215,Área Metropolitana de Lisboa,Mafra,38.9443106,-9.3320856,ChIJ5aAHEzQoHw0RQOCQ5L3rAAU,Portugal,Lisbon,Mafra,"2640 Mafra, Portugal",307,02:55:00,348,05:34:00,40.1,00:44:00,52.7,06:19:00
216,Área Metropolitana de Lisboa,Moita,38.653115,-8.993017199999999,ChIJ-cQZqIFHGQ0RQAiR5L3rAAU,Portugal,Setubal,Moita,"2860 Moita, Portugal",333,03:08:00,336,04:01:00,38.7,00:36:00,37.6,01:11:00
217,Área Metropolitana de Lisboa,Montijo,38.7065326,-8.9765351,ChIJ1y3AOus5GQ0RBuQb0aeUzEI,Portugal,Setubal,Montijo,"Montijo, Portugal",328,03:07:00,332,04:17:00,32.8,00:40:00,33.6,00:57:00
218,Área Metropolitana de Lisboa,Odivelas,38.7928952,-9.1831615,ChIJG8CGuqkyGQ0Rk6oQ9_w5PJ4,Portugal,Lisbon,Odivelas,"Odivelas, Portugal",312,02:56:00,317,03:57:00,10.0,00:24:00,19.6,00:59:00
219,Área Metropolitana de Lisboa,Oeiras,38.69686069999999,-9.3146014,ChIJEYNl2y3JHg0R9zyZw3xCJ6A,Portugal,Lisbon,Oeiras,"2780 Oeiras, Portugal",334,03:07:00,332,04:29:00,22.1,00:25:00,27.2,01:39:00
220,Área Metropolitana de Lisboa,Palmela,38.569441,-8.9016937,ChIJOyHNw5tBGQ0Rjoj5NCaEmEA,Portugal,Setubal,Palmela,"Palmela, Portugal",346,03:16:00,347,04:22:00,42.8,00:38:00,48.5,01:27:00
221,Área Metropolitana de Lisboa,Seixal,38.6410676,-9.0975,ChIJj6MCcfNJGQ0RMWYtPME8rQw,Portugal,Setubal,Seixal,"2840 Seixal, Portugal",335,03:16:00,335,04:40:00,23.5,00:29:00,36.9,01:49:00
222,Área Metropolitana de Lisboa,Sesimbra,38.44421699999999,-9.1014903,ChIJja9tSotRGQ0RiwZekB3GbdE,Portugal,Setubal,Sesimbra,"2970 Sesimbra, Portugal",352,03:40:00,371,08:34:00,40.4,00:52:00,69.6,05:49:00
223,Área Metropolitana de Lisboa,Setúbal,38.5260437,-8.8909328,ChIJNXQCq_5CGQ0RVKq1m3Y_8p8,Portugal,Setubal,Setúbal,"Setúbal, Portugal",348,03:17:00,362,05:12:00,49.3,00:42:00,61.7,01:52:00
224,Área Metropolitana de Lisboa,Sintra,38.8233416,-9.3229213,ChIJIzPS5ZvQHg0RIDeQ5L3rAAQ,Portugal,Lisbon,Sintra,"Sintra, Portugal",330,03:06:00,356,05:13:00,30.8,00:32:00,32.1,01:22:00
225,Área Metropolitana de Lisboa,Vila Franca de Xira,38.9549979,-8.9888982,ChIJzY7T3O0nGQ0RmHTGQAKoiLI,Portugal,Lisbon,Vila Franca de Xira,"2600 Vila Franca de Xira, Portugal",282,02:37:00,306,02:51:00,30.5,00:34:00,30.1,00:21:00
228,Alentejo,Alcácer do Sal,38.3706145,-8.5061998,ChIJqSKnhQh_GQ0RCnMpm2VUWVA,Portugal,Setubal,Alcácer do Sal,"7580 Alcácer do Sal, Portugal",363,03:19:00,Não disponível,00:00:00,91.5,01:02:00,Não disponível,00:00:00
229,Alentejo,Grândola,38.1770597,-8.5669509,ChIJ7a3mGwHSGw0RZ3mbOGVyFZg,Portugal,Setubal,Grândola,"7570 Grândola, Portugal",388,03:31:00,447,03:55:00,116,01:14:00,132,01:45:00
230,Alentejo,Odemira,37.6098303,-8.6270628,ChIJX3DcwBUGGw0R-rQ_kGtEg4U,Portugal,Beja District,Odemira,"7630-174 Odemira, Portugal",475,04:35:00,512,06:35:00,204,02:17:00,198,02:55:00
231,Alentejo,Santiago do Cacém,38.0162314,-8.6956768,ChIJ4fanTRXHGw0RV266cmvlEaU,Portugal,Setúbal,Santiago do Cacém,"7540 Santiago do Cacém, Portugal",417,03:53:00,476,05:03:00,145,01:36:00,159,02:15:00
232,Alentejo,Sines,37.9571555,-8.860890699999999,ChIJYfjgEgO_Gw0RHuATLf4j_WU,Portugal,Setubal,Sines,"Sines, Portugal",431,04:01:00,502,05:33:00,159,01:43:00,186,02:45:00
234,Alentejo,Aljustrel,37.8760582,-8.1649833,ChIJ0yWVecVCGg0RG2Pnv6T_SfM,Portugal,Beja District,Aljustrel,"7600 Aljustrel, Portugal",435,03:55:00,510,05:53:00,163,01:38:00,184,02:25:00
235,Alentejo,Almodôvar,37.4891809,-8.090174,ChIJ3cxwQKSTGg0RoC6Q5L3rAAQ,Portugal,Beja District,Almodôvar,"Almodôvar, 7700, Portugal",486,04:24:00,Não disponível,00:00:00,214,02:06:00,Não disponível,00:00:00
236,Alentejo,Alvito,38.2558735,-7.991930099999999,ChIJgw0iUv0aGg0RPUWalX-gb-E,Portugal,Beja,Alvito,"7920 Alvito, Portugal",448,04:11:00,Não disponível,00:00:00,176,01:54:00,Não disponível,00:00:00
237,Alentejo,Barrancos,38.1328809,-6.977312599999999,ChIJzxM3FUMiEQ0RKQ-ERyAtwoI,Portugal,Beja District,Barrancos,"7230 Barrancos, Portugal",510,05:09:00,Não disponível,00:00:00,238,02:52:00,Não disponível,00:00:00
238,Alentejo,Beja,38.0153039,-7.8627308,ChIJh83fpXFzGg0Rk1HM5nDqWmo,Portugal,Beja District,Beja,"7800 Beja, Portugal",448,04:18:00,547,07:20:00,176,02:01:00,195,04:35:00
239,Alentejo,Castro Verde,37.6991315,-8.085826299999999,ChIJMSZ-sdBhGg0RhC1KnWezgi4,Portugal,Beja District,Castro Verde,"7780 Castro Verde, Portugal",462,04:09:00,533,06:18:00,190,01:51:00,207,02:50:00
240,Alentejo,Cuba,38.156574,-7.8939317,ChIJqTDeXMQOGg0Rvhaa77RAmw4,Portugal,Beja District,Cuba,"Cuba, 7940, Portugal",448,04:13:00,477,05:57:00,176,01:56:00,177,02:37:00
241,Alentejo,Ferreira do Alentejo,38.0593873,-8.114071299999999,ChIJWePvDfE_Gg0RRBzPFH2NHsQ,Portugal,Beja District,Ferreira do Alentejo,"7900 Ferreira do Alentejo, Portugal",424,03:56:00,463,05:30:00,153,01:38:00,152,01:50:00
242,Alentejo,Mértola,37.6415148,-7.6606665,ChIJq8xkRrt9EA0RmKY7gnJpwCQ,Portugal,Beja District,Mértola,"7750 Mértola, Portugal",506,04:43:00,554,07:30:00,234,02:25:00,244,03:50:00
243,Alentejo,Moura,38.1426988,-7.4512581,ChIJCYqlfobAEA0RpIfEV3Xm3rs,Portugal,Beja District,Moura,"7860 Moura, Portugal",481,04:43:00,525,06:45:00,209,02:25:00,215,03:10:00
244,Alentejo,Ourique,37.6521402,-8.224390399999999,ChIJiwXCl3j2Gg0Rds12p2UEtbo,Portugal,Beja District,Ourique,"7670 Ourique, Portugal",462,04:08:00,518,06:45:00,191,01:51:00,203,02:45:00
245,Alentejo,Serpa,37.9469642,-7.602181900000001,ChIJR_VTc2KQEA0REPxXdwNQTKw,Portugal,Beja District,Serpa,"7830 Serpa, Portugal",474,04:33:00,517,06:25:00,202,02:16:00,207,02:45:00
246,Alentejo,Vidigueira,38.2118842,-7.8005203,ChIJhzGAgREIGg0Rq6kyjRNDLmE,Portugal,Beja District,Vidigueira,"7960 Vidigueira, Portugal",458,04:24:00,490,05:50:00,187,02:06:00,184,02:10:00
248,Alentejo,Almeirim,39.2075098,-8.6270969,ChIJ2wYm0kHwGA0Rm6QlouP8QhU,Portugal,Santarém District,Almeirim,"2080 Almeirim, Portugal",257,02:26:00,Não disponível,00:00:00,91.8,01:10:00,Não disponível,00:00:00
249,Alentejo,Alpiarça,39.2591889,-8.5820055,ChIJnXp56eTzGA0RfXMk0fIZNqY,Portugal,Santarém District,Alpiarça,"2090 Alpiarça, Portugal",257,02:31:00,Não disponível,00:00:00,91.7,01:15:00,Não disponível,00:00:00
250,Alentejo,Azambuja,39.0704397,-8.8730393,ChIJ178RVdfdGA0R-8CuBy7-IdI,Portugal,Lisbon,Azambuja,"2050 Azambuja, Portugal",272,02:36:00,345,04:10:00,50.4,00:52:00,46.9,00:50:00
251,Alentejo,Benavente,38.980974,-8.809251399999999,ChIJH6Sd7lMeGQ0RFgAbpKNgBwo,Portugal,Santarém District,Benavente,"Benavente, Portugal",292,02:41:00,Não disponível,00:00:00,56.0,00:49:00,Não disponível,00:00:00
252,Alentejo,Cartaxo,39.16181660000001,-8.7888254,ChIJsW_OUYboGA0RfJ4VNJu6W4g,Portugal,Santarém,Cartaxo,"2070 Cartaxo, Portugal",254,02:23:00,383,04:30:00,66.2,00:57:00,67.6,00:55:00
253,Alentejo,Chamusca,39.3564086,-8.4786825,ChIJAYAsbP1fGA0RiuZTNdAUcWw,Portugal,Santarém,Chamusca,"2140 Chamusca, Portugal",229,02:20:00,Não disponível,00:00:00,108,01:29:00,Não disponível,00:00:00
254,Alentejo,Coruche,38.9596619,-8.52473,ChIJLUrgjLsAGQ0RcVP9rctYbdk,Portugal,Santarém District,Coruche,"2100 Coruche, Portugal",285,02:47:00,289,03:55:00,77.9,01:12:00,117,02:05:00
255,Alentejo,Golegã,39.4047966,-8.4880572,ChIJY_vIkeZhGA0RsX1qqLFWa8Y,Portugal,Santarém District,Golegã,"2150 Golegã, Portugal",221,02:10:00,Não disponível,00:00:00,129,01:28:00,Não disponível,00:00:00
256,Alentejo,Rio Maior,39.3393698,-8.935573699999999,ChIJZSOw6MW4GA0RQAKR5L3rAAU,Portugal,Santarém District,Rio Maior,"Rio Maior, 2040 Rio Maior, Portugal",261,02:27:00,409,04:48:00,81.4,01:08:00,85.6,01:35:00
257,Alentejo,Salvaterra de Magos,39.0272019,-8.794182,ChIJi0tjpgvhGA0RAxrOHTSWbYs,Portugal,Santarém District,Salvaterra de Magos,"Salvaterra de Magos, Portugal",290,02:47:00,Não disponível,00:00:00,62.1,00:57:00,Não disponível,00:00:00
258,Alentejo,Santarém,39.2366618,-8.686011900000002,ChIJm9eOSHLuGA0Rkp3ZqNatBvQ,Portugal,Santarém District,Santarém,"Santarem, Portugal",247,02:22:00,262,02:30:00,81.7,01:06:00,74.3,00:47:00
260,Alentejo,Alter do Chão,39.201007,-7.660334,ChIJFScF3KuFFw0RQVSJ86fQhgI,Portugal,Portalegre,Alter do Chão,"7440 Alter do Chão, Portugal",296,03:08:00,505,06:40:00,194,02:18:00,195,03:05:00
261,Alentejo,Arronches,39.1218363,-7.2845731,ChIJvUzomcenFw0RV0AMw6tkVIw,Portugal,Portalegre District,Arronches,"7340 Arronches, Portugal",316,03:24:00,Não disponível,00:00:00,219,02:20:00,Não disponível,00:00:00
262,Alentejo,Avis,39.07417119999999,-7.8939317,ChIJAX8w9RotGA0RkDeQ5L3rAAQ,Portugal,Portalegre District,Avis,"Avis, 7480, Portugal",295,03:10:00,Não disponível,00:00:00,168,01:55:00,Não disponível,00:00:00
263,Alentejo,Campo Maior,39.0441326,-7.0713572,ChIJJah2dMP9Fg0RpNmhiEHDYws,Portugal,Portalegre District,Campo Maior,"Campo Maior, 7370, Portugal",340,03:42:00,Não disponível,00:00:00,227,02:19:00,Não disponível,00:00:00
264,Alentejo,Castelo de Vide,39.4146181,-7.454066399999999,ChIJA5bHIk2VFw0RNwbmAyh8nv8,Portugal,Portalegre,Castelo de Vide,"7320 Castelo de Vide, Portugal",286,03:03:00,572,07:55:00,224,02:28:00,257,04:10:00
265,Alentejo,Crato,39.28767440000001,-7.6456553,ChIJ5UZjKVuOFw0RDMJWzMHRHFg,Portugal,Portalegre District,Crato,"7430 Crato, Portugal",285,02:59:00,520,06:55:00,209,02:23:00,210,03:20:00
266,Alentejo,Elvas,38.8802788,-7.1636637,ChIJ857MAg4dFw0Ryi_z1DAuCr0,Portugal,Portalegre District,Elvas,"7350 Elvas, Portugal",348,03:54:00,556,06:03:00,208,02:07:00,226,03:20:00
267,Alentejo,Fronteira,39.05599730000001,-7.647754000000001,ChIJI20GCmV4Fw0RxAAD2AhhslM,Portugal,Portalegre District,Fronteira,"7460 Fronteira, Portugal",313,03:25:00,483,06:15:00,180,02:04:00,173,02:40:00
268,Alentejo,Gavião,39.46528,-7.935946899999999,ChIJ53naffEZGA0RXZ9MzI2Nups,Portugal,Portalegre District,Gavião,"6040 Gavião, Portugal",260,02:35:00,492,06:10:00,168,01:54:00,177,02:25:00
269,Alentejo,Marvão,39.3939447,-7.376536299999999,ChIJT4wkDxW_Fw0R1kDG6Lnwmr4,Portugal,Portalegre District,Marvão,"7330 Marvão, Portugal",299,03:19:00,585,09:06:00,236,02:44:00,270,05:21:00
270,Alentejo,Monforte,39.0528283,-7.4377345,ChIJ8y2KutIKFw0RqOL7Y-2LBD8,Portugal,Portalegre,Monforte,"7450 Monforte, Portugal",321,03:25:00,Não disponível,00:00:00,198,02:04:00,Não disponível,00:00:00
271,Alentejo,Nisa,39.5179524,-7.648376700000001,ChIJwyzkX6_xFw0RFsuiAvPjOAg,Portugal,Portalegre District,Nisa,"6050 Nisa, Portugal",260,02:44:00,522,06:40:00,197,02:09:00,207,02:55:00
272,Alentejo,Ponte de Sor,39.2524027,-8.0093497,ChIJc89Gmk47GA0RWR5qLk6WgV0,Portugal,Portalegre District,Ponte de Sor,"7400 Ponte de Sor, Portugal",270,02:49:00,472,06:00:00,137,01:58:00,157,02:15:00
273,Alentejo,Portalegre,39.2967086,-7.4284755,ChIJ3yw5BoK9Fw0RQFO9yvJNwb8,Portugal,Portalegre District,Portalegre,"7300 Portalegre, Portugal",292,03:06:00,541,06:25:00,227,02:24:00,231,02:45:00
274,Alentejo,Sousel,38.9535932,-7.6764218,ChIJzY3yF-t7Fw0RSru5g8zyO8Y,Portugal,Portalegre District,Sousel,"7470 Sousel, Portugal",321,03:34:00,Não disponível,00:00:00,167,01:52:00,Não disponível,00:00:00
276,Alentejo,Alandroal,38.7021331,-7.4036488,ChIJ0YLcwRo_Fw0RIvDvc7BGgEM,Portugal,Évora District,Alandroal,"7250 Alandroal, Portugal",373,04:03:00,Não disponível,00:00:00,193,01:57:00,Não disponível,00:00:00
277,Alentejo,Arraiolos,38.7232208,-7.9867614,ChIJd8c89JnCGQ0RqmMmhp9yq08,Portugal,Évora District,Arraiolos,"7040 Arraiolos, Portugal",394,03:38:00,448,05:20:00,123,01:20:00,138,01:55:00
278,Alentejo,Borba,38.8068177,-7.458405000000001,ChIJ6Qk31TVrFw0RidgXfhAjBZ8,Portugal,Évora District,Borba,"7150 Borba, Portugal",359,03:52:00,527,05:33:00,180,01:47:00,197,02:50:00
279,Alentejo,Estremoz,38.8425123,-7.588837799999999,ChIJ21mj6kBvFw0R_RDEecWRv_U,Portugal,Évora District,Estremoz,"7100 Estremoz, Portugal",347,03:43:00,484,05:40:00,171,01:45:00,174,02:00:00
280,Alentejo,Évora,38.571431,-7.913501999999999,ChIJnRODON_kGQ0RbO-9wzGKraY,Portugal,Évora District,Évora,"Evora, Portugal",403,03:44:00,467,06:09:00,132,01:26:00,115,02:01:00
281,Alentejo,Montemor-o-Novo,38.64814,-8.211679799999999,ChIJnx4fHiyUGQ0R2An_EQt2Umc,Portugal,Évora District,Montemor-o-Novo,"7050 Montemor-o-Novo, Portugal",373,03:25:00,496,08:45:00,102,01:07:00,143,06:00:00
282,Alentejo,Mora,38.9447445,-8.1653387,ChIJV9R153K2GQ0RJOI2kb5v7H8,Portugal,Évora District,Mora,"7490 Mora, Portugal",322,03:19:00,422,05:05:00,108,01:34:00,112,01:30:00
283,Alentejo,Mourão,38.3637216,-7.286867999999999,ChIJtVnHXWLMEA0R30A9MEGLHrc,Portugal,Évora District,Mourão,"Mourão, 7240, Portugal",467,04:36:00,Não disponível,00:00:00,196,02:19:00,Não disponível,00:00:00
284,Alentejo,Portel,38.3088689,-7.7047438,ChIJM8kXCVKpEA0Rjn4tBqnGDN8,Portugal,Distrito de Évora,Portel,"7220 Portel, Portugal",444,04:14:00,486,06:10:00,172,01:56:00,176,02:35:00
285,Alentejo,Redondo,38.63714239999999,-7.589737200000001,ChIJ1ZOXfRREFw0RSH_Gs5BnUJc,Portugal,Évora District,Redondo,"Redondo, Portugal",365,04:07:00,Não disponível,00:00:00,169,01:49:00,Não disponível,00:00:00
286,Alentejo,Reguengos de Monsaraz,38.42526549999999,-7.5344352,ChIJHRv_nLtMFw0RRnNI9G93zTA,Portugal,Évora District,Reguengos de Monsaraz,"7200 Reguengos de Monsaraz, Portugal",441,04:15:00,479,06:20:00,170,01:57:00,168,02:35:00
287,Alentejo,Vendas Novas,38.6768924,-8.4633558,ChIJe_iOlvifGQ0ReyybnR5JII4,Portugal,Évora District,Vendas Novas,"7080 Vendas Novas, Portugal",339,03:12:00,395,04:44:00,85.6,01:00:00,95.1,01:24:00
288,Alentejo,Viana do Alentejo,38.3341493,-8.0038406,ChIJ5eStrQEdGg0ReJzgnpAtxqM,Portugal,Évora District,Viana do Alentejo,"7090 Viana do Alentejo, Portugal",431,04:06:00,Não disponível,00:00:00,160,01:49:00,Não disponível,00:00:00
289,Alentejo,Vila Viçosa,38.7754165,-7.416119999999999,ChIJOTaEmnIVFw0R7Ihw-npcbnM,Portugal,Distrito de Évora,Vila Viçosa,"7160 Vila Viçosa, Portugal",366,03:59:00,520,05:28:00,187,01:54:00,190,02:45:00
292,Algarve,Albufeira,37.0890719,-8.2478796,ChIJH8TdOK7OGg0RRRBEYqXnIu0,Portugal,Faro District,Albufeira,"8200 Albufeira, Portugal",528,04:46:00,583,07:10:00,256,02:29:00,252,02:45:00
293,Algarve,Alcoutim,37.4689817,-7.4735957,ChIJowm92zZqEA0RRYMQEvvWKmI,Portugal,Faro District,Alcoutim,"8970 Alcoutim, Portugal",548,05:21:00,699,09:55:00,276,03:03:00,384,06:10:00
294,Algarve,Aljezur,37.31657,-8.7992645,ChIJw4QJoFMVGw0Rxg_DN39zeBA,Portugal,Faro District,Aljezur,"8670 Aljezur, Portugal",590,05:21:00,556,07:25:00,318,03:04:00,241,03:45:00
295,Algarve,Castro Marim,37.2179422,-7.4423339,ChIJ_2ZrNQwYEA0RA0BkbDz2sBA,Portugal,Faro District,Castro Marim,"8950 Castro Marim, Portugal",596,05:19:00,622,08:45:00,324,03:02:00,312,05:05:00
296,Algarve,Faro,37.0164626,-7.9351983,ChIJp_qQIudSBQ0RWv9KSdTCc40,Portugal,Faro District,Faro,"Faro, Portugal",549,04:59:00,605,07:30:00,277,02:41:00,294,03:45:00
297,Algarve,Lagoa,37.1346084,-8.4513272,ChIJGcrqJ7DXGg0R8DOQ5L3rAAQ,Portugal,Faro District,Lagoa,"Lagoa, 8400, Portugal",541,04:48:00,556,06:56:00,269,02:31:00,274,03:11:00
298,Algarve,Lagos,37.1027881,-8.6730275,ChIJjU0jUEkwGw0RV_waR6OqEFQ,Portugal,Faro District,Lagos,"8600 Lagos, Portugal",573,05:10:00,640,08:20:00,301,02:52:00,309,03:45:00
299,Algarve,Loulé,37.1379187,-8.020216,ChIJkTRI3SmxGg0RY14FaR4uG6c,Portugal,Faro District,Loulé,"8100 Loulé, Portugal",536,04:48:00,621,08:59:00,264,02:30:00,314,04:33:00
300,Algarve,Monchique,37.3179879,-8.5561706,ChIJQVpSze8hGw0RZgOBxAGMa2g,Portugal,Faro,Monchique,"8550 Monchique, Portugal",528,05:04:00,650,08:45:00,256,02:46:00,320,05:00:00
301,Algarve,Olhão,37.02731929999999,-7.839969000000001,ChIJ-zTptzKrGg0RkokFGQYp9BQ,Portugal,Faro District,Olhão,"Olhão, Portugal",568,05:07:00,615,08:49:00,296,02:49:00,331,05:48:00
302,Algarve,Portimão,37.13617,-8.5376926,ChIJYSkkqewoGw0R4RSAcSPJ_JM,Portugal,Faro District,Portimão,"8500 Portimão, Portugal",553,04:59:00,620,07:50:00,282,02:42:00,290,03:15:00
303,Algarve,São Brás de Alportel,37.152576,-7.889052299999999,ChIJ7VmYUNuuGg0RAncYTvOHbW4,Portugal,Faro District,São Brás de Alportel,"8150 São Brás de Alportel, Portugal",555,04:59:00,648,07:39:00,283,02:42:00,298,04:41:00
304,Algarve,Silves,37.1873255,-8.439477499999999,ChIJR7dMc_LZGg0RpqURX5Mg4s4,Portugal,Faro District,Silves,"Silves, Portugal",524,04:46:00,633,08:58:00,252,02:28:00,302,04:23:00
305,Algarve,Tavira,37.1335906,-7.643001899999999,ChIJJWaO0HwDEA0RRd0tOcUDRdQ,Portugal,Faro District,Tavira,"8800 Tavira, Portugal",574,05:07:00,587,07:30:00,302,02:49:00,309,04:16:00
306,Algarve,Vila do Bispo,37.0829204,-8.9121095,ChIJKy_0giVJGw0R93HidwDvK18,Portugal,Faro District,Vila do Bispo,"8650 Vila do Bispo, Portugal",592,05:26:00,632,07:45:00,320,03:08:00,322,04:00:00
307,Algarve,Vila Real de Santo António,37.1937766,-7.420787899999999,ChIJNXz7_GMiEA0Rmh8-yQAVANw,Portugal,Faro District,Vila Real de Santo António,"Vila Real de Santo António, Portugal",596,05:22:00,635,08:15:00,324,03:04:00,359,05:00:00
311,Região Autónoma dos Açores,Vila do Porto,36.9568069,-25.1412354,ChIJHfhIuDyRZwsRGyHa8fZRUAc,Portugal,Açores,Vila do Porto,"Vila do Porto, 9580, Portugal",Não disponível,00:00:00,Não disponível,00:00:00,Não disponível,00:00:00,Não disponível,00:00:00
313,Região Autónoma dos Açores,Lagoa [R.A.A.],37.1346307,-8.451247,ChIJqdPvp_7WGg0RyuVyn1Lyvyc,Portugal,Faro District,Lagoa,"8400 Lagoa, Portugal",541,04:48:00,555,06:50:00,269,02:31:00,270,03:00:00
314,Região Autónoma dos Açores,Nordeste,37.8324954,-25.1459445,ChIJISRqDcQdXQsRXdiGhMIPX4k,Portugal,Açores,Nordeste,"Nordeste, 9630, Portugal",Não disponível,00:00:00,Não disponível,00:00:00,Não disponível,00:00:00,Não disponível,00:00:00
315,Região Autónoma dos Açores,Ponta Delgada,37.7394207,-25.6686725,ChIJlw6wdswqQwsRFsRvTvKAVXY,Portugal,Azores,São Miguel,"Ponta Delgada, Portugal",Não disponível,00:00:00,Não disponível,00:00:00,Não disponível,00:00:00,Não disponível,00:00:00
316,Região Autónoma dos Açores,Povoação,37.7486524,-25.2390903,ChIJn9rFmA0fXQsRkD-Q5L3rAAQ,Portugal,Azores,Povoação,"9650 Povoacao, Portugal",Não disponível,00:00:00,Não disponível,00:00:00,Não disponível,00:00:00,Não disponível,00:00:00
317,Região Autónoma dos Açores,Ribeira Grande,37.8226777,-25.5238789,ChIJjTB99cvZXAsRoD-Q5L3rAAQ,Portugal,Azores,Ribeira Grande,"9600 Ribeira Grande, Portugal",Não disponível,00:00:00,Não disponível,00:00:00,Não disponível,00:00:00,Não disponível,00:00:00
318,Região Autónoma dos Açores,Vila Franca do Campo,37.7157269,-25.4345063,ChIJlz4wp10mXQsR8R4AhiKAubI,Portugal,Azores,Vila Franca do Campo,"9680 Vila Franca do Campo, Portugal",Não disponível,00:00:00,Não disponível,00:00:00,Não disponível,00:00:00,Não disponível,00:00:00
320,Região Autónoma dos Açores,Angra do Heroísmo,38.6635375,-27.2293969,ChIJBTvkER5_RgsRBgaj9bnZ8sY,Portugal,Azores,Terceira,"9700 Angra do Heroísmo, Portugal",Não disponível,00:00:00,Não disponível,00:00:00,Não disponível,00:00:00,Não disponível,00:00:00
321,Região Autónoma dos Açores,Vila da Praia da Vitória,38.7798819,-27.1529458,ChIJXQV3xCHYRQsRZPzYfxNzsKk,Portugal,Azores,Terceira,"9760 Vila Nova, Portugal",Não disponível,00:00:00,Não disponível,00:00:00,Não disponível,00:00:00,Não disponível,00:00:00
323,Região Autónoma dos Açores,Santa Cruz da Graciosa,39.0862753,-28.0156811,ChIJv5sfSi5_SAsRkD6Q5L3rAAQ,Portugal,Azores,Graciosa,"Santa Cruz da Graciosa, Portugal",Não disponível,00:00:00,Não disponível,00:00:00,Não disponível,00:00:00,Não disponível,00:00:00
325,Região Autónoma dos Açores,Calheta [R.A.A.],32.7331781,-17.1928035,ChIJrWR7uIVRYAwRPWwB6gaJt0U,Portugal,Madeira,Madeira,"9370 Estreito da Calheta, Portugal",Não disponível,00:00:00,Não disponível,00:00:00,Não disponível,00:00:00,Não disponível,00:00:00
326,Região Autónoma dos Açores,Velas,38.6839843,-28.2131879,ChIJl9faFXPHRwsRsD6Q5L3rAAQ,Portugal,Azores,San Jorge,"9800 Velas, Portugal",Não disponível,00:00:00,Não disponível,00:00:00,Não disponível,00:00:00,Não disponível,00:00:00
328,Região Autónoma dos Açores,Lajes do Pico,38.39976770000001,-28.2519641,ChIJgakZpP2jRwsRID-Q5L3rAAQ,Portugal,Azores,Pico,"9930 Lajes do Pico, Portugal",Não disponível,00:00:00,Não disponível,00:00:00,Não disponível,00:00:00,Não disponível,00:00:00
329,Região Autónoma dos Açores,Madalena,41.10181,-8.647329,ChIJq7qhA1JlJA0RsEqQ5L3rAAU,Portugal,Porto District,Vila Nova de Gaia,"Madalena, 4405 Vila Nova de Gaia, Portugal",8.9,00:17:00,8.3,00:33:00,309,03:03:00,329,04:36:00
330,Região Autónoma dos Açores,São Roque do Pico,38.5160544,-28.3140488,ChIJY-KOW0-9RwsRQD-Q5L3rAAQ,Portugal,Azores,Pico,"São Roque do Pico, Portugal",Não disponível,00:00:00,Não disponível,00:00:00,Não disponível,00:00:00,Não disponível,00:00:00
332,Região Autónoma dos Açores,Horta,38.5348447,-28.6299812,ChIJXzht8NeKRwsRCeeNmTYc6DU,Portugal,Azores,Faial,"Horta, Portugal",Não disponível,00:00:00,Não disponível,00:00:00,Não disponível,00:00:00,Não disponível,00:00:00
334,Região Autónoma dos Açores,Lajes das Flores,39.3782624,-31.1781975,ChIJwdj33NAjMgsRAD-Q5L3rAAQ,Portugal,Azores,Flores,"Lajes das Flores, Portugal",Não disponível,00:00:00,Não disponível,00:00:00,Não disponível,00:00:00,Não disponível,00:00:00
335,Região Autónoma dos Açores,Santa Cruz das Flores,39.453672,-31.1275738,ChIJN4mG6zokMgsRcNGdRmokQMs,Portugal,Azores,Flores,"Santa Cruz das Flores, Portugal",Não disponível,00:00:00,Não disponível,00:00:00,Não disponível,00:00:00,Não disponível,00:00:00
337,Região Autónoma dos Açores,Corvo,39.6729436,-31.1144706,ChIJr0OcnJVHMgsR4D6Q5L3rAAQ,Portugal,Azores,Corvo,"9980 Vila do Corvo, Portugal",Não disponível,00:00:00,Não disponível,00:00:00,Não disponível,00:00:00,Não disponível,00:00:00
341,Região Autónoma da Madeira,Calheta [R.A.M.],32.7331781,-17.1928035,ChIJrWR7uIVRYAwRPWwB6gaJt0U,Portugal,Madeira,Madeira,"9370 Estreito da Calheta, Portugal",Não disponível,00:00:00,Não disponível,00:00:00,Não disponível,00:00:00,Não disponível,00:00:00
342,Região Autónoma da Madeira,Câmara de Lobos,32.6607565,-16.9867462,ChIJyR0p1JleYAwR0D-Q5L3rAAQ,Portugal,Madeira,Madeira,"Câmara de Lobos, Portugal",Não disponível,00:00:00,Não disponível,00:00:00,Não disponível,00:00:00,Não disponível,00:00:00
343,Região Autónoma da Madeira,Funchal,32.6506129,-16.9082357,ChIJq4sfUMNfYAwROaHNFSxN2P8,Portugal,Madeira,Madeira,"Funchal, Portugal",Não disponível,00:00:00,Não disponível,00:00:00,Não disponível,00:00:00,Não disponível,00:00:00
344,Região Autónoma da Madeira,Machico,32.7318412,-16.791291,ChIJNWG5TApjYAwRsip0tQK8Kos,Portugal,Madeira,Madeira,"Machico, Portugal",Não disponível,00:00:00,Não disponível,00:00:00,Não disponível,00:00:00,Não disponível,00:00:00
345,Região Autónoma da Madeira,Ponta do Sol,32.6814913,-17.1019871,ChIJ9ZNr2FhXYAwRXFkpnOOotnU,Portugal,Madeira,Ponta do Sol,"9360 Ponta do Sol, Portugal",Não disponível,00:00:00,Não disponível,00:00:00,Não disponível,00:00:00,Não disponível,00:00:00
346,Região Autónoma da Madeira,Porto Moniz,32.8659619,-17.1673851,ChIJWe6SLqtPYAwREECQ5L3rAAQ,Portugal,Madeira,Madeira,"Porto Moniz, Portugal",Não disponível,00:00:00,Não disponível,00:00:00,Não disponível,00:00:00,Não disponível,00:00:00
347,Região Autónoma da Madeira,Ribeira Brava,32.671409,-17.0646395,ChIJP4nwPQpZYAwRpQT3iMD8F3Y,Portugal,Madeira,Madeira,"9350 Ribeira Brava, Portugal",Não disponível,00:00:00,Não disponível,00:00:00,Não disponível,00:00:00,Não disponível,00:00:00
348,Região Autónoma da Madeira,Santa Cruz,39.1340863,-9.3814444,ChIJXV00g4M6Hw0RfGbsn014wsM,Portugal,Lisboa,Torres Vedras,"Santa Cruz, 2560-498 Silveira, Portugal",284,02:49:00,Não disponível,00:00:00,68.5,01:05:00,Não disponível,00:00:00
349,Região Autónoma da Madeira,Santana,32.8051351,-16.881891,ChIJa1Wtk7dnYAwRyc_mGzEhae8,Portugal,Madeira,Madeira,"9230 Santana, Portugal",Não disponível,00:00:00,Não disponível,00:00:00,Não disponível,00:00:00,Não disponível,00:00:00
350,Região Autónoma da Madeira,São Vicente,32.803304,-17.0455668,ChIJRc0CdNREYAwR1lYyzHXZ7Zs,Portugal,Madeira,Madeira,"9240 Sao Vicente, Portugal",Não disponível,00:00:00,Não disponível,00:00:00,Não disponível,00:00:00,Não disponível,00:00:00
352,Região Autónoma da Madeira,Porto Santo,33.05,-16.35,ChIJsytbpU3dXwwRtCxE2Ta2B0U,Portugal,Madeira,Porto Santo,"9400-226 Porto Santo, Portugal",Não disponível,00:00:00,Não disponível,00:00:00,Não disponível,00:00:00,Não disponível,00:00:00
